,category,name,lon,lat,day,open,close
0,musicvenues,Alexandra Palace,-0.130093499999995,51.5939065176711,4,960,0
1,musicvenues,Cadogan Hall,-0.1575743,51.4936625,4,600,1080
2,musicvenues,Roundhouse,-0.150961,51.543409,4,570,1260
3,musicvenues,The Queen of Hoxton,-0.0810885429382324,51.5222692197122,4,960,120
4,musicvenues,Styx,-0.06116,51.590199,4,1080,1380
5,musicvenues,Green Note,-0.14565062803498,51.537438632465,4,1140,1380
6,musicvenues,Sevilla Mia,-0.132074,51.51691,4,1020,150
7,musicvenues,The Hideaway,-0.136642456054688,51.5642660244139,4,1020,120
8,musicvenues,The Den,-0.125476002693176,51.5168304443359,4,1320,360
9,musicvenues,Proud Cabaret,-0.08074,51.511621,4,1110,180
10,musicvenues,Mother Live,-0.080360216081048,51.527216016492,4,1140,120
11,musicvenues,Barrio Central,-0.1364542,51.5140335,4,960,60
12,musicvenues,Studio 88,-0.13111616015144,51.5098992197415,4,960,180
13,musicvenues,Hatchetts,-0.1458192,51.5057854,4,720,0
14,musicvenues,showcase55,-0.083858,51.529019,4,720,0
15,musicvenues,Troxy,-0.044002543242645,51.513046454246,4,0,0
16,musicvenues,Hoxton White Horse,-0.0803549,51.5311203,4,720,60
17,musicvenues,Barrio Shoreditch,-0.0781682810583805,51.5261481076847,4,960,120
18,musicvenues,The George Tavern,-0.053114,51.514333,4,840,210
19,musicvenues,The Coronet,-0.0988307,51.494888,4,600,420
20,musicvenues,Mau Mau Bar,-0.206798,51.51786,4,600,0
21,musicvenues,A2 Delicious Restaurant,-0.017606,51.4479828,4,720,180
22,musicvenues,The Clapham Grand,-0.169394,51.463081,4,1200,180
23,musicvenues,Ashtar Bar & Restaurant,-0.12311312698364,51.4879248387481,4,720,330
24,musicvenues,O2 Shepherd's Bush Empire,-0.224193,51.503868,4,540,1050
25,musicvenues,Jamboree,-0.0432596,51.5114288,4,1200,0
26,musicvenues,Riverside Studios,-0.227553046892955,51.4885595820839,4,510,0
27,musicvenues,Bonafide Studio,-0.141878,51.58915,4,480,0
28,musicvenues,Albany Centre & Theatre,-0.0281707,51.4775891,4,540,1080
29,musicvenues,Caffé Concerto,-0.136678,51.509699,4,420,1380
30,musicvenues,RADA Studios,-0.1326435,51.5207403,4,540,1320
31,musicvenues,Café Oto,-0.0747883560309078,51.5469106942846,4,1200,0
32,musicvenues,Aces & Eights,-0.138423442840576,51.5568156548447,4,960,180
33,musicvenues,Bush Theatre,-0.2259240014056,51.505227931921,4,600,1380
34,musicvenues,Wilton's Music Hall,-0.0667762756347656,51.5105854325666,4,1020,1380
35,musicvenues,Servant Jazz Quarters,-0.0767218,51.5486422,4,1080,120
36,musicvenues,Eaton Square Bar,-0.148209,51.498272,4,720,0
37,musicvenues,Euphoriom Nightclub & Bar,-0.264541000127792,51.5064010620117,4,1350,210
38,musicvenues,Proud Camden,-0.14874,51.54286,4,660,150
39,musicvenues,606 Club,-0.1819652922312,51.47813751937,4,1200,60
40,musicvenues,Dee Dee's,-0.096328,51.456778,4,720,1410
41,musicvenues,Rigatoni London,-0.200656,51.48302,4,660,0
42,musicvenues,The Scotch of St James,-0.1372408,51.5076125,4,1380,300
43,musicvenues,333 Mother Bar,-0.080362003315629,51.527267010015,4,720,180
44,musicvenues,The Distillers Pub,-0.10061868979545,51.518957102637,4,600,60
45,musicvenues,The Half Moon,-0.100755123837709,51.4527530528328,4,420,0
46,musicvenues,Palace Theatre,-0.129518016286871,51.5132393753197,4,1170,1320
47,musicvenues,St Martin in the Fields,-0.126756,51.508793,4,480,1260
48,musicvenues,Old Tom's Bar,-0.083405,51.51269,4,660,1380
49,musicvenues,Royal Court Theatre,-0.156518185947144,51.4925592283224,4,660,0
50,musicvenues,The Cockpit,-0.1692918,51.524528,4,600,1080
51,musicvenues,Bateaux London,-0.121504322753935,51.5087818003374,4,720,1380
52,musicvenues,The Victoria,-0.0699801,51.5456506,4,1020,120
53,musicvenues,Roadtrip & The Workshop,-0.084333,51.526634,4,720,300
54,musicvenues,Mill Hill Music Complex,-0.2448242,51.6099858,4,660,1380
55,musicvenues,New Cross Inn,-0.037135,51.4758249,4,720,120
56,musicvenues,Ritzy,-0.114782525333122,51.4613079982434,4,720,0
57,musicvenues,Cool Cats' Cafe,-0.0838174912628347,51.478074540845,4,1020,60
58,musicvenues,Floripa,-0.0837498451732586,51.5259291627647,4,1020,180
59,musicvenues,Half Moon,-0.22006806110739,51.467307060842,4,660,60
60,musicvenues,Hippodrome Casino,-0.12877836869184,51.5114481358807,4,0,0
61,musicvenues,The Tabernacle,-0.201921745849805,51.5170565400035,4,540,0
62,musicvenues,The Vortex Jazz Club,-0.0765167,51.54932,4,1200,0
63,musicvenues,Piccadilly Theatre,-0.1353599,51.5108549,4,600,1200
64,musicvenues,Club 414,-0.113088,51.461868,4,1380,540
65,musicvenues,Dirty Water Club,-0.138248,51.558131,4,1230,180
66,musicvenues,Project Orange,-0.17040910213262,51.462851913426,4,1020,60
67,musicvenues,The Social,-0.140846,51.5174,4,750,60
68,musicvenues,Hen Party London,-0.2320957,51.5494834,4,540,420
69,musicvenues,Kingpin Suite,-0.128328,51.524251,4,720,120
70,musicvenues,Ministry Of Sound,-0.0995267984277344,51.4977791652439,4,1350,390
71,musicvenues,Moors Bar,-0.12610200047493,51.5812721252441,4,1320,180
72,musicvenues,Islington Assembly Hall,-0.102659732540928,51.5416247324842,4,540,1020
73,musicvenues,Barfly,-0.14925982752823,51.543146724567,4,900,180
74,musicvenues,White Post,-0.0225310173850923,51.5417586663375,4,480,0
75,musicvenues,The Garage,-0.103971,51.546742,4,1140,240
76,musicvenues,The Artworks Elephant,-0.0985406711697579,51.4931476501709,4,480,60
77,musicvenues,The Moustache Bar,-0.074802,51.552331,4,1170,120
78,musicvenues,Source Below,-0.1370668,51.5108226,4,1020,0
79,musicvenues,Great Suffolk Street Warehouse,-0.1013273,51.5043536,4,420,1380
80,musicvenues,O2 Forum,-0.1419179,51.5520286,4,1080,120
81,musicvenues,The Crystal,0.0162407456367161,51.5072956804427,4,600,1020
82,musicvenues,Union Chapel,-0.102769,51.54437,4,570,1080
83,musicvenues,93 Feet East,-0.0715507998863814,51.5212392528136,4,1020,60
84,musicvenues,St Martin's Theatre,-0.127672,51.512847,4,600,1200
85,musicvenues,The Venue,-0.036570240498117,51.475823140255,4,1320,240
86,musicvenues,Arch1,0.00461330209964217,51.5222066460632,4,1140,120
87,musicvenues,Tara Theatre,-0.187878,51.44179,4,600,1080
88,musicvenues,Under The Bridge,-0.190309002995491,51.4811325073242,4,1140,60
89,musicvenues,AlleyCat Club,-0.129185006022453,51.515308380127,4,1020,180
90,musicvenues,KOKO,-0.138359069824219,51.5346440882812,4,1320,240
91,musicvenues,oil on canvas,-0.126236,51.5002,4,540,1080
92,musicvenues,The CLF Art Cafe,-0.068008,51.469866,4,1020,360
93,musicvenues,The Great Northern Railway Tavern,-0.116131,51.587984,4,660,60
94,musicvenues,Cyprus Meze Bar & Restaurant,-0.017344,51.57267,4,1140,120
95,musicvenues,Luna Lounge,0.0090034,51.5683582,4,990,60
96,musicvenues,The Junction,-0.09963,51.467019,4,960,0
97,musicvenues,CellarDoor,-0.119229555130005,51.5115235844158,4,960,60
98,musicvenues,The Prince Albert,-0.113720720506352,51.4616655419757,4,1260,180
99,musicvenues,Royal Academy Of Music,-0.152168,51.523622,4,420,1380
100,musicvenues,Party Pianos - The UK Duelling Pianos Show,-0.15747,51.51665,4,420,1380
101,musicvenues,Thomas A Becket,-0.077566,51.488422,4,720,330
102,musicvenues,Tape London,-0.144618398406007,51.5142764636541,4,1320,180
103,musicvenues,Fabric,-0.102471799978848,51.5196084163624,4,600,180
104,musicvenues,jam session,-0.037135,51.4758263,4,660,120
105,musicvenues,St James Theatre,-0.142263960119093,51.4988158356587,4,840,1170
106,musicvenues,Shacklewell Arms,-0.0713196999300147,51.5523861372771,4,240,180
107,musicvenues,The Sound Lounge,-0.204504355788231,51.420185960374,4,660,1380
108,musicvenues,Royal Albert Hall,-0.177414610229825,51.5009964375442,4,540,1260
109,musicvenues,Tooting Tram and Social,-0.166769027709961,51.4269222179313,4,1020,120
110,musicvenues,Bloomsbury Theatre,-0.13258571441719,51.524951106569,4,600,1080
111,musicvenues,Bush Hall,-0.2316337,51.5065655,4,1170,60
112,musicvenues,Conway Hall,-0.1184159,51.5195474,4,510,0
113,musicvenues,The Midnight Rebel Band,-0.1391449,51.53476,4,1350,180
114,musicvenues,Zigfrid von Underbelly,-0.081736889127628,51.528021687624,4,720,180
115,musicvenues,Rise46,-0.1645599,51.4610483,4,1080,120
116,musicvenues,LSE Student Union,-0.116744,51.513976,4,1080,120
117,musicvenues,Ladybird Bar,-0.104026,51.536001,4,1020,240
118,musicvenues,Victoria Palace Theatre,-0.14254894143432,51.4967811841893,4,1170,1350
119,musicvenues,Birthdays,-0.0752017300954,51.5515994924597,4,960,180
120,musicvenues,Royal Vauxhall Tavern,-0.121945,51.4860659,4,1140,120
121,musicvenues,Cart & Horses,0.00434505520388484,51.5458798282975,4,720,120
122,musicvenues,Camden Peoples Theatre,-0.138404,51.526399,4,600,1080
123,musicvenues,Shakespeare's Globe Theatre,-0.0971089400017153,51.5081126650366,4,540,1020
124,musicvenues,Gielgud Theatre,-0.13323999941349,51.512020111084,4,600,1200
125,musicvenues,Spiritual Caipirinha Bar,-0.14892,51.543273,4,1080,60
126,musicvenues,Portobello Lounge,-0.206798002123833,51.5178604125977,4,600,0
127,musicvenues,Suburban Bar & Lounge,-0.205718,51.419587,4,1020,0
128,musicvenues,Jazz Cafe,-0.14318484710043,51.538732436501,4,1140,120
129,musicvenues,Resident Studios,-0.232055,51.5503,4,600,1380
130,musicvenues,Cargo,-0.078913,51.526626,4,720,180
131,musicvenues,Farmopolis,0.012899816518015,51.4981522584165,4,600,1320
132,musicvenues,Scala,-0.120840203374542,51.5307732176212,4,600,1080
133,restaurants,La Porchetta Pollo Bar,-0.130298037090699,51.5136346213443,4,720,0
134,restaurants,Fuckoffee,-0.0812485,51.4993814,4,420,1140
135,restaurants,Bodean's,-0.13711100353483,51.462083824343,4,720,1380
136,restaurants,Royal China,-0.155250194816181,51.5178304458283,4,720,1410
137,restaurants,Princi,-0.134387051472991,51.5138629586873,4,480,0
138,restaurants,Sake No Hana,-0.1392329553479,51.506677921246,4,1080,1410
139,restaurants,Pizza Metro Pizza,-0.1661898002693,51.460922896098,4,1080,0
140,restaurants,Poppies,-0.1439009,51.5409693,4,660,0
141,restaurants,Spuntino,-0.133808,51.512205,4,720,60
142,restaurants,Dumplings' Legend,-0.131604999303818,51.5118217468262,4,690,1410
143,restaurants,Wahaca,-0.135030033674326,51.5185498585848,4,720,1380
144,restaurants,Ye Olde Cheshire Cheese,-0.107315,51.5143449,4,660,1380
145,restaurants,Portobello Ristorante Pizzeria,-0.197994,51.510158,4,1080,1380
146,restaurants,La Fromagerie,-0.152211421569433,51.5198559022117,4,480,1170
147,restaurants,Abu Zaad,-0.164480370707586,51.5163498013287,4,540,1380
148,restaurants,Arepa & Co,-0.0802071,51.5373195,4,600,1350
149,restaurants,Taberna do Mercado,-0.0747024939347884,51.5197434697765,4,720,1320
150,restaurants,Friends of Ours,-0.0836995,51.5291189,4,480,1020
151,restaurants,Boqueria,-0.12713936531653,51.459870028924,4,750,0
152,restaurants,Satay House,-0.169519,51.517626,4,1080,1380
153,restaurants,Hawksmoor Seven Dials,-0.12567396291297,51.5134998914001,4,1020,1380
154,restaurants,Cinnamon Kitchen,-0.0785229,51.5169345,4,1080,1380
155,restaurants,Beach Blanket Babylon,-0.198986,51.5143249,4,720,60
156,restaurants,Bosphorus Kebabs,-0.1762272,51.4929609,4,660,1410
157,restaurants,Dans Le Noir,-0.1062015,51.522811,4,1110,0
158,restaurants,Riverford at The Duke of Cambridge,-0.0987110343933182,51.5345940382283,4,720,1410
159,restaurants,Granger & Co,-0.19779915622354,51.514646148453,4,420,1380
160,restaurants,Mem & Laz,-0.1032254,51.5376911,4,720,1410
161,restaurants,Bageriet,-0.1261821,51.5119236,4,540,1140
162,restaurants,Kaffeine,-0.137167,51.5168726,4,450,1080
163,restaurants,MerazCafe Karahi House,-0.071025,51.520193,4,660,1410
164,restaurants,Seashell of Lisson Grove,-0.165982,51.522795,4,720,1350
165,restaurants,Zayna,-0.158385,51.514952,4,1020,1380
166,restaurants,Tea and Tattle,-0.126817002892494,51.5178680419922,4,540,1110
167,restaurants,Wild Food Cafe,-0.126376003026962,51.5145721435547,4,690,1320
168,restaurants,Granger & Co,-0.125704638943534,51.5325845472022,4,420,1380
169,restaurants,Carluccio's,-0.125749006867409,51.5115852355957,4,480,1410
170,restaurants,Mildreds,-0.144592,51.54048,4,720,1380
171,restaurants,Honest Burgers,-0.078783096863666,51.5176771368587,4,690,1380
172,restaurants,Trader Vic's,-0.150574000276853,51.5054604652401,4,1020,180
173,restaurants,Lundenwic,-0.118617,51.5129,4,420,1020
174,restaurants,Wagamama,-0.079344,51.508653,4,720,1260
175,restaurants,Saporitalia,-0.2056955,51.517086,4,720,1380
176,restaurants,Admiral Codrington,-0.165918468624657,51.4938141432655,4,690,60
177,restaurants,Royal China,-0.187244316153717,51.5105005571439,4,720,1410
178,restaurants,The Roastery Cafe,-0.14780739417243,51.466771352998,4,450,930
179,restaurants,Hoppers,-0.131750002503395,51.5135765075684,4,1050,1350
180,restaurants,The Cut,-0.107385,51.503061,4,480,0
181,restaurants,Karpo,-0.1238274,51.5298811,4,420,1350
182,restaurants,Cafe 338,-0.0632059606602997,51.52651439251,4,360,1050
183,restaurants,Byron,-0.1067367,51.5030324,4,690,0
184,restaurants,Pilpel,-0.0772774,51.5189556,4,600,960
185,restaurants,Pachamama,-0.1515276,51.5171822,4,720,0
186,restaurants,J+A Café,-0.101019002497196,51.5230293273926,4,480,1080
187,restaurants,Le Peche Mignon,-0.107909992126366,51.5500471393663,4,450,1020
188,restaurants,Wright Brothers Borough Market,-0.0915559,51.5054862,4,720,1320
189,restaurants,Patara,-0.1307571,51.5141961,4,1050,1350
190,restaurants,Homeslice Neal's Yard,-0.126426543278564,51.5144380966574,4,720,1380
191,restaurants,Dragon Castle,-0.098573,51.492101,4,720,1410
192,restaurants,Flesh & Buns,-0.126240480271074,51.5138810333143,4,1020,1380
193,restaurants,Old Fountain,-0.089101,51.527072,4,660,1380
194,restaurants,Kettner's,-0.13040954242843,51.513184351372,4,720,60
195,restaurants,The Pig and Butcher,-0.10682789450616,51.537442542029,4,720,60
196,restaurants,Mimos Cafe,-0.174005,51.5150959,4,420,1320
197,restaurants,Rabieng,-0.102785,51.539829,4,690,1380
198,restaurants,Yashin Sushi,-0.195618867874146,51.5007620563954,4,1080,1380
199,restaurants,The Gallery,-0.1902599,51.5465294,4,720,30
200,restaurants,Gold Mine,-0.187491998076439,51.5133018493652,4,720,1380
201,restaurants,Bistrotheque,-0.0560837915559814,51.5341223088385,4,1110,1380
202,restaurants,Pierino Pizza Pasta,-0.1740772,51.4951101,4,720,1410
203,restaurants,Arancina,-0.1975001,51.5098497,4,450,1380
204,restaurants,Yoshino,-0.1356747,51.5095758,4,720,1320
205,restaurants,Sagar,-0.1206465,51.5125564,4,720,1380
206,restaurants,Naru,-0.125953473951252,51.516772350748,4,1050,1350
207,restaurants,Savoy Grill,-0.120730476398416,51.5102197687511,4,720,0
208,restaurants,Champor-Champor,-0.0854034,51.5024226,4,1080,1320
209,restaurants,Mango Indian,-0.092963,51.504962,4,720,1380
210,restaurants,Ichiryu,-0.12773477943445,51.5167273946318,4,720,1410
211,restaurants,Hot Stuff,-0.126418375984764,51.4796635642281,4,720,1320
212,restaurants,German Gymnasium,-0.125419827905187,51.5323975443626,4,480,60
213,restaurants,Bombay Brasserie,-0.182583332061768,51.493942546773,4,1110,1410
214,restaurants,Albion,-0.076235,51.524137,4,480,780
215,restaurants,Daylesford Organic,-0.1533991,51.490645,4,480,1200
216,restaurants,Cinnamon Coffee Shop,-0.0571632385253906,51.5048292310893,4,420,1080
217,restaurants,Savoir Faire,-0.1260125,51.5171949,4,720,1410
218,restaurants,Pizza Union,-0.0773585960268974,51.5175265894232,4,660,0
219,restaurants,Museum Tavern,-0.125971101400664,51.5182144172415,4,660,720
220,restaurants,Four Corners Cafe,-0.1135442,51.5003689,4,450,1110
221,restaurants,Antepliler,-0.098629,51.578056,4,720,1410
222,restaurants,Bugis Street Brasserie,-0.183931280273902,51.4936621211568,4,720,1350
223,restaurants,Thali,-0.1834772,51.490932,4,1110,1410
224,restaurants,The Draft House,-0.0769468034392541,51.5028699547583,4,720,1380
225,restaurants,J Sheekey,-0.127622,51.510895,4,720,0
226,restaurants,Ladurée,-0.123133037598674,51.51184286271,4,480,1410
227,restaurants,Sen Viet,-0.1159522,51.529089,4,1020,1380
228,restaurants,Kêu!,-0.0816240012645721,51.5266075134277,4,480,1200
229,restaurants,Byron,-0.133756,51.512782,4,690,0
230,restaurants,CASK Pub and Kitchen,-0.13753688795203,51.49135039773,4,720,1380
231,restaurants,Little Bay West Hampstead,-0.190351,51.5387914,4,720,0
232,restaurants,Bonnington Café,-0.1200278,51.4846229,4,1110,1350
233,restaurants,Grumbles,-0.138889,51.491138,4,1080,1380
234,restaurants,Busaba Eathai,-0.151190757751465,51.514725174257,4,720,1410
235,restaurants,Maggie Jones's,-0.1909916674772,51.502856014927,4,1080,1380
236,restaurants,Ethos,-0.1390968,51.51638,4,480,1320
237,restaurants,The Jolly Butchers,-0.0733491,51.5623655,4,960,60
238,restaurants,Lowlander,-0.12241,51.514624,4,540,0
239,restaurants,Ozone Coffee,-0.086674106560876,51.524683689256,4,450,1260
240,restaurants,Villandry,-0.143144858908866,51.5214563850873,4,450,1350
241,restaurants,Haché,-0.0804783,51.5266514,4,720,1380
242,restaurants,Wahaca's Mexican Street Kitchen,-0.116387934599604,51.507023783327,4,720,1380
243,restaurants,The Rainforest Cafe,-0.133634,51.510854,4,720,1320
244,restaurants,Chick n Sours,-0.0759780034422874,51.5415344238281,4,1080,1380
245,restaurants,Harrods' Tea Room,-0.16359383122593,51.4992262754487,4,600,1200
246,restaurants,Silk Road,-0.0896081,51.4739712,4,1020,1380
247,restaurants,The Castle,-0.20699787084123,51.50691920617,4,720,60
248,restaurants,Alounak,-0.1910234,51.5156246,4,720,0
249,restaurants,Chiltern Firehouse,-0.154846859653053,51.5187121017659,4,1080,1350
250,restaurants,Pickle & Rye,-0.266688129485996,51.4683030502269,4,510,1290
251,restaurants,C & R Cafe & Restaurant,-0.132525,51.511171,4,720,1380
252,restaurants,Four Seasons,-0.187348,51.51257,4,720,0
253,restaurants,Ffiona's Restaurant,-0.192783395566043,51.50405773515,4,1080,1380
254,restaurants,Best Mangal,-0.207411,51.491225,4,720,0
255,restaurants,Big Easy,-0.1231134,51.5106735,4,720,30
256,restaurants,The Ivy,-0.128013,51.512814,4,720,1410
257,restaurants,Selale,-0.099613956558125,51.5831363856466,4,480,120
258,restaurants,Zuma,-0.16315196998654,51.500949826679,4,1080,1320
259,restaurants,Asakusa,-0.138284,51.533923,4,1080,1410
260,restaurants,Le Mercury,-0.10271961840901,51.539763831626,4,720,60
261,restaurants,Ganapati,-0.073005378271727,51.469647326576,4,1080,1350
262,restaurants,Rocca,-0.176558382809162,51.4928759536943,4,690,1410
263,restaurants,The Colonel Fawcett,-0.136007736926076,51.5418041646628,4,720,60
264,restaurants,Wahaca,-0.1245423,51.5103409,4,720,1380
265,restaurants,Brass Rail Salt Beef Bar,-0.153764,51.514518,4,570,1260
266,restaurants,CUT at 45 Park Lane,-0.151611998677254,51.5063934326172,4,1080,1380
267,restaurants,Apero Restaurant and Bar,-0.175349,51.494372,4,390,1350
268,restaurants,Chai Ki,-0.017862532263166,51.5061226580201,4,1050,1380
269,restaurants,St. Moritz Restaurant,-0.135039,51.514529,4,1080,1410
270,restaurants,Wong Kei Restaurant,-0.132421,51.5115375,4,720,1410
271,restaurants,Wafflemeister,-0.1487016,51.5144262,4,600,0
272,restaurants,Nobu Berkeley St,-0.143449097152784,51.5084914741339,4,720,120
273,restaurants,Burger and Lobster,-0.094483494758606,51.5136669051182,4,720,1350
274,restaurants,The Dairy,-0.1395915,51.4618724,4,1080,1320
275,restaurants,Daddy Donkey Mexican Grill,-0.109436213063745,51.5206105839131,4,660,960
276,restaurants,The Wilmington,-0.11009303944619,51.526032086412,4,600,0
277,restaurants,Burger and Shake,-0.125415,51.525005,4,720,1350
278,restaurants,ICCo,-0.136045,51.519545,4,420,0
279,restaurants,Hoxton Grill,-0.0827283,51.5254782,4,420,0
280,restaurants,Mike's Café,-0.2056495177367,51.515863871511,4,600,1140
281,restaurants,The Warrington Hotel,-0.183075398850623,51.5272581650888,4,660,0
282,restaurants,Efes,-0.058481630609315,51.5146603960192,4,600,0
283,restaurants,Sushi Surprise,-0.0810580000729546,51.5233667437201,4,1020,1305
284,restaurants,Star Kebab House,-0.1946912,51.4932627,4,690,300
285,restaurants,The English Restaurant,-0.076603889465332,51.5189580049569,4,480,1380
286,restaurants,Osteria Basilico,-0.2058905197699,51.515359633283,4,1110,1410
287,restaurants,Wahaca,-0.13376991245546,51.51333452102,4,720,1380
288,restaurants,Wagamama,-0.141947122753891,51.4967799888926,4,690,1320
289,restaurants,Eat Tokyo,-0.130327,51.513816,4,720,1410
290,restaurants,Masala Zone Soho,-0.137674604592006,51.513424266119,4,720,1380
291,restaurants,The Anchor and Hope,-0.10658608333864,51.503472834404,4,1080,1350
292,restaurants,Greedy Cow Burgers & Steaks,-0.034555228429624,51.525386204778,4,720,1380
293,restaurants,The Veggie Table,-0.090092,51.505092,4,660,1080
294,restaurants,Bibimbap,-0.131003,51.514512,4,1080,1380
295,restaurants,L'Atelier de Joël Robuchon,-0.128444,51.512985,4,1050,0
296,restaurants,Momo,-0.1403264,51.5111056,4,1110,1380
297,restaurants,NOPI,-0.1385226,51.511617,4,1050,1350
298,restaurants,Electricity Showrooms,-0.080301875970497,51.527469891216,4,720,60
299,restaurants,Mari Vanna,-0.162390466864736,51.5018146470026,4,540,60
300,restaurants,Kua 'Aina,-0.139153003692627,51.5136635666908,4,600,1380
301,restaurants,Good Earth,-0.1684174,51.4968451,4,720,1380
302,restaurants,The Drunken Monkey,-0.0781917572021484,51.5226653030687,4,720,0
303,restaurants,Ravi Shankar,-0.13666,51.527081,4,720,1380
304,restaurants,Hi Sushi Salsa,-0.146770477294922,51.5400094905912,4,720,1380
305,restaurants,Chi Noodle,-0.1053698,51.5135092,4,690,1380
306,restaurants,Gaucho,-0.1780746,51.5574187,4,720,1410
307,restaurants,Caravan Kings Cross,-0.125370576153865,51.5357788239146,4,480,1350
308,restaurants,Yoobi,-0.136000007390976,51.5128974914551,4,690,1260
309,restaurants,Petek,-0.10959946621625,51.568311764628,4,720,1380
310,restaurants,Ceviche Soho,-0.131492614746094,51.5136702435432,4,720,1410
311,restaurants,Rossopomodoro Covent Garden,-0.127266748729596,51.5130126011976,4,720,1410
312,restaurants,Monkey & Me,-0.159375,51.519706,4,1080,1380
313,restaurants,Caravan,-0.110122750616417,51.5254718215956,4,480,1350
314,restaurants,Nobu,-0.1500369,51.5050546,4,1080,1320
315,restaurants,The English Rose Cafe and Tea Shop,-0.1444512,51.4980558,4,420,1080
316,restaurants,Rasa N16,-0.076586,51.561983,4,1080,1410
317,restaurants,Pearl Liang,-0.181188583374023,51.5192622106976,4,720,1380
318,restaurants,Waxy O'Connor's,-0.1322637,51.5107349,4,720,0
319,restaurants,Zafferano,-0.157740090217924,51.499097748922,4,720,1380
320,restaurants,Natural Kitchen,-0.152275,51.520971,4,480,1200
321,restaurants,Garlic & Shots,-0.13152700704109,51.513850442943,4,1080,60
322,restaurants,Fishworks,-0.1520129,51.5201578,4,720,1350
323,restaurants,Salt 'n Pepper,-0.130080970437565,51.5094074028577,4,720,1380
324,restaurants,Malabar Junction,-0.1292199,51.5175678,4,1080,1380
325,restaurants,Pizza Union,-0.11983242244974,51.531051655444,4,660,0
326,restaurants,Social Eating House,-0.1363879,51.5136727,4,1080,1350
327,restaurants,Wagamama,-0.117476,51.505847,4,660,1380
328,restaurants,Giraffe,-0.1421975,51.4939137,4,480,1380
329,restaurants,Il Blandford's,-0.155747,51.520315,4,540,1350
330,restaurants,Pizzeria Pappagone,-0.1126623,51.5694126,4,1080,0
331,restaurants,Pret A Manger,-0.1494624,51.5142107,4,450,1260
332,restaurants,Clos Maggiore,-0.124695,51.51166,4,1020,1380
333,restaurants,The Palomar Restaurant,-0.1327159,51.5111632,4,1050,1410
334,restaurants,Sông Quê,-0.0768315,51.531788,4,1050,1380
335,restaurants,Hawksmoor Spitalfields,-0.075657,51.5211502,4,1020,1350
336,restaurants,Oblix At The Shard,-0.0869875,51.5052532,4,1080,1380
337,restaurants,La Trompette,-0.256036,51.491874,4,1110,1350
338,restaurants,Al Arez,-0.165289,51.498938,4,600,1410
339,restaurants,Maroush Bakehouse,-0.194478,51.49332,4,420,0
340,restaurants,Beast,-0.146885111927986,51.5152854919434,4,1050,1320
341,restaurants,Andover Arms,-0.2326856,51.4968774,4,720,0
342,restaurants,The 10 Cases,-0.124330997467041,51.5145378112793,4,720,1380
343,restaurants,Portland Café,-0.1425633,51.5199777,4,360,1080
344,restaurants,Tibits,-0.139624997973442,51.511302947998,4,540,0
345,restaurants,Galvin La Chapelle,-0.0782929,51.5203976,4,1080,1350
346,restaurants,Goodman City,-0.0905290022492409,51.5143089294434,4,720,1350
347,restaurants,The Shed,-0.193422,51.508743,4,1080,0
348,restaurants,Brasserie Zédel,-0.135575861793962,51.5106025898049,4,690,0
349,restaurants,Oliveto,-0.150923,51.493495,4,1140,1380
350,restaurants,Burger & Lobster,-0.1322316,51.5135487,4,720,1380
351,restaurants,Masala Zone ,-0.122892676352195,51.5133574651623,4,720,1410
352,restaurants,Delhi Grill,-0.109256,51.5335540771484,4,720,1380
353,restaurants,Pho,-0.135051995515823,51.514575958252,4,720,1380
354,restaurants,Mala,-0.07028,51.506449,4,1080,1380
355,restaurants,Casa Tua,-0.123588235886524,51.5276449011142,4,540,1350
356,restaurants,Benito's Hat,-0.13643751745084,51.519131499225,4,690,1380
357,restaurants,Koya Bar,-0.131762,51.513632,4,510,1380
358,restaurants,Caxton Grill,-0.1339889,51.4987949,4,690,1380
359,restaurants,The Cinnamon Club,-0.129634,51.497381,4,1080,1350
360,restaurants,Pho,-0.10161233121869,51.521845158056,4,1080,1350
361,restaurants,Manna,-0.1576059,51.5419069,4,1110,1350
362,restaurants,Masala Zone - Bayswater,-0.18760265712075,51.5158873871808,4,1050,1380
363,restaurants,In Parma by Food Roots,-0.135842,51.518877,4,1080,1410
364,restaurants,Bodean's,-0.0791233,51.5097548,4,540,1380
365,restaurants,Le Relais de Venise,-0.086231,51.514705,4,1080,1320
366,restaurants,Cafe Pacifico,-0.1251885,51.5132318,4,720,1425
367,restaurants,Pollen Street Social,-0.142294155464837,51.5134486407661,4,1080,1350
368,restaurants,Frontline Restaurant,-0.1724763,51.5169838,4,1050,1380
369,restaurants,Diwana Bhel Poori House,-0.13666,51.527081,4,720,1410
370,restaurants,Bodean's,-0.13676105637839,51.514481362499,4,690,1380
371,restaurants,Simpson's in the Strand,-0.120733,51.51056,4,720,1380
372,restaurants,Laughing Gravy,-0.104388336058516,51.5011315371,4,660,0
373,restaurants,Fera at Claridge's,-0.1476371,51.5124262,4,720,1320
374,restaurants,Pizza Express,-0.13330639195462,51.515107445511,4,660,0
375,restaurants,The Rum Kitchen,-0.1387341,51.5123393,4,660,30
376,restaurants,Hutong,-0.0863956051376916,51.5042658217118,4,1080,1350
377,restaurants,Sömine,-0.0754135,51.5502038,4,360,360
378,restaurants,Fortnum and Mason: Diamond Jubilee Tea Salon,-0.138279327972609,51.5087069889729,4,720,1260
379,restaurants,Rabot 1745,-0.0899640662595528,51.5053829371106,4,480,0
380,restaurants,Talli Joe,-0.128209993243217,51.5137825012207,4,720,1410
381,restaurants,Haandi,-0.166097811955979,51.4989505199775,4,750,1410
382,restaurants,The Abingdon,-0.19607751802576,51.497629045444,4,750,1380
383,restaurants,Benares Restaurant & Bar,-0.14496481802094,51.509912100752,4,1050,1380
384,restaurants,Toff's of Muswell Hill,-0.14461961705316,51.58945970694,4,690,1380
385,restaurants,Chotto Matte,-0.1314659,51.5137171,4,720,90
386,restaurants,Cecconi's,-0.140876,51.509937,4,420,1410
387,restaurants,Benito's Hat,-0.12583341157004,51.511176885171,4,690,1380
388,restaurants,José,-0.0819549,51.5004996,4,720,1350
389,restaurants,Earl of Essex,-0.0996945,51.5339046,4,720,0
390,restaurants,Milk Bar,-0.13126851745979,51.514162886575,4,480,1050
391,restaurants,Belgo Centraal,-0.125649969207333,51.5137833644188,4,720,1410
392,restaurants,The Gallery Café,-0.0544517132455334,51.5298488421438,4,480,1260
393,restaurants,Mother Clucker Van,-0.0732363717341444,51.5210630330169,4,720,1200
394,restaurants,French House,-0.13175952435253,51.5126599026214,4,720,1380
395,restaurants,La Crêperie de Hampstead,-0.17692025446205,51.55568223459,4,780,1380
396,restaurants,Petrus,-0.1565204,51.4993674,4,720,1350
397,restaurants,Hard Rock Cafe London,-0.149002075195312,51.5037473579887,4,690,60
398,restaurants,Piebury Corner,-0.110394960320726,51.5510023870432,4,720,1320
399,restaurants,All Star Lanes,-0.071842,51.521793,4,720,30
400,restaurants,Pham Sushi,-0.093295,51.5233,4,1020,1320
401,restaurants,Sagar,-0.2322561,51.4924981,4,720,1350
402,restaurants,The Windsor Castle,-0.198597460985184,51.505787326816,4,720,1380
403,restaurants,Ippudo London,-0.127689803558686,51.5159763055577,4,1020,1350
404,restaurants,Quilon Restaurant,-0.1374994,51.4987197,4,1080,1350
405,restaurants,Le Sacre Coeur,-0.10402800142765,51.5376815795898,4,690,1410
406,restaurants,Vanilla Black,-0.11102477345447,51.517175605475,4,1080,1320
407,restaurants,The Lanesborough,-0.152723,51.502441,4,960,1080
408,restaurants,The Princess of Shoreditch,-0.0836493,51.5254182,4,720,1380
409,restaurants,Murano,-0.147277,51.507034,4,1110,1380
410,restaurants,Mother Mash,-0.139414,51.512935,4,510,1320
411,restaurants,Rasa Sayang,-0.13154,51.511991,4,720,0
412,restaurants,Daquise,-0.1736183,51.4943231,4,720,1380
413,restaurants,Angelus Restaurant,-0.174882,51.512908,4,600,1380
414,restaurants,Asia de Cuba Restaurant,-0.126575379692895,51.5105028336088,4,1020,0
415,restaurants,Haché,-0.1802172,51.4861854,4,720,1380
416,restaurants,TRADE - Commercial Street,-0.073803998529911,51.5174201859475,4,450,1020
417,restaurants,Burger & Lobster,-0.159817,51.501594,4,720,1350
418,restaurants,Gallipoli Bistro & Cafe,-0.1029622,51.5377136,4,660,1380
419,restaurants,Ottolenghi,-0.0771446,51.5181446,4,480,1350
420,restaurants,Franco Manca,-0.253668576478958,51.4929480888683,4,540,1380
421,restaurants,Yipin China Restaurant,-0.106626,51.537275,4,720,1380
422,restaurants,The Breakfast Club,-0.103710715876,51.5351048605,4,480,1380
423,restaurants,The Bird In Hand,-0.21544145627873,51.499761921973,4,720,1380
424,restaurants,Leon,-0.1221967,51.5100532,4,420,1380
425,restaurants,Ittenbari,-0.13724,51.51076,4,720,90
426,restaurants,L'Eto Caffe,-0.134786,51.514301,4,480,1380
427,restaurants,Chipotle Mexican Grill,-0.10366262637603,51.535510650631,4,660,1380
428,restaurants,Kikuchi,-0.13172617631368,51.516918961279,4,1080,1350
429,restaurants,Laughing Halibut,-0.133777235475182,51.4966544699782,4,690,1200
430,restaurants,Applebee's Grill + Bar,-0.090895547188616,51.505090141667,4,690,1410
431,restaurants,The Phoenix,-0.142395,51.498801,4,660,1380
432,restaurants,Burger & Lobster,-0.1013951,51.5211228,4,720,1380
433,restaurants,Christopher's,-0.119777974134674,51.5119199617267,4,1020,90
434,restaurants,Egg Break,-0.198022,51.50832,4,480,1320
435,restaurants,The Queen's Arms,-0.180797918037262,51.4992491095565,4,720,1380
436,restaurants,Cafe Mama Pho,-0.0405929228705673,51.4889814685828,4,1020,1350
437,restaurants,Kati Roll Company,-0.137216,51.51522,4,660,30
438,restaurants,SUSHISAMBA London,-0.080946,51.516179,4,690,30
439,restaurants,Swan,-0.0970920026302338,51.5079574584961,4,480,30
440,restaurants,Chilango,-0.1053208,51.534366,4,690,0
441,restaurants,Lantana,-0.0874923,51.5242658,4,1080,1290
442,restaurants,Eat Tokyo,-0.197729006409645,51.5080718994141,4,1080,1410
443,restaurants,Mazi,-0.1977605,51.5081215,4,1110,1380
444,restaurants,The Black Penny,-0.1216783,51.5152588,4,480,1080
445,restaurants,Amaya,-0.1572173,51.4991557,4,1080,1365
446,restaurants,The Jones Family Project,-0.0829150037047839,51.5258201511173,4,660,0
447,restaurants,Draughts,-0.0757967709020303,51.5370053432325,4,1020,0
448,restaurants,Jamie's Italian - Covent Garden,-0.1271055,51.5125252,4,690,1380
449,restaurants,Padella,-0.0899515,51.5051451,4,720,1320
450,restaurants,Ottolenghi,-0.19941762827537,51.514890823172,4,480,1200
451,restaurants,Soho Joe,-0.132791195106506,51.5142249090856,4,720,0
452,restaurants,The Edinboro Castle,-0.14483,51.536059,4,720,1380
453,restaurants,Barbecoa St Paul's,-0.095332,51.513346,4,690,1380
454,restaurants,The Draft House Westbridge,-0.1701164,51.4783074,4,720,1380
455,restaurants,Jumbo Eats,-0.135526,51.511425,4,450,1200
456,restaurants,Golden Union Fish Bar,-0.1376925,51.5153383,4,690,1320
457,restaurants,Barrafina,-0.121933,51.514302,4,1020,1380
458,restaurants,H T Harris,-0.1407232,51.5183508,4,420,1080
459,restaurants,NoorJahan II,-0.1715077,51.5134986,4,1080,1410
460,restaurants,The Peasant,-0.103859877687725,51.5257670339641,4,720,1380
461,restaurants,The Alchemist,-0.0793474,51.5150476,4,480,120
462,restaurants,26 Grains,-0.126531,51.51449,4,480,1290
463,restaurants,49 Cafe,-0.1251605,51.5249587,4,450,1140
464,restaurants,Phoenix Palace,-0.158978228464046,51.5224525062645,4,720,1410
465,restaurants,Le Gavroche,-0.15507069144529,51.511300562631,4,1110,1380
466,restaurants,Moro Restaurant,-0.10906549497442,51.525859880105,4,720,1350
467,restaurants,Tamarind,-0.147140606231687,51.5070768887132,4,1050,1365
468,restaurants,Bravas Tapas,-0.071242,51.507436,4,720,1350
469,restaurants,Roast,-0.0910057691819765,51.5056071178748,4,420,1350
470,restaurants,Darwin Brasserie,-0.083578996360302,51.5112915039063,4,420,1380
471,restaurants,Boundary,-0.0763511937803751,51.5244009704464,4,720,1350
472,restaurants,Ed's Easy Diner,-0.13004649654123,51.5135649611822,4,720,0
473,restaurants,Goddards at Greenwich,-0.008856,51.481844,4,600,1200
474,restaurants,DF/Mexico,-0.0731523330745166,51.5203859689409,4,720,1380
475,restaurants,Lupita,-0.124196683992859,51.5084058547771,4,720,1410
476,restaurants,Barshu,-0.130857,51.512835,4,720,1410
477,restaurants,Great Queen Street,-0.1217126,51.5152346,4,1050,1350
478,restaurants,Hunan,-0.1526547,51.490493,4,1110,1380
479,restaurants,Rasa,-0.14595077253473,51.514322112715,4,1080,1350
480,restaurants,Bar Italia,-0.131236,51.513425,4,420,300
481,restaurants,The Red Fort,-0.132943848687773,51.5140704264099,4,1050,1410
482,restaurants,Hawksmoor,-0.136161326657445,51.5097072807539,4,1020,1380
483,restaurants,Crème de la Crêpe,-0.122995376586914,51.5120009994698,4,660,1140
484,restaurants,Alforno Restaurant,-0.2021152,51.4197771,4,1080,1380
485,restaurants,Pied à Terre,-0.1351808,51.5190877,4,1080,1380
486,restaurants,Nando's,-0.18178093508751,51.493490111935,4,690,0
487,restaurants,Jack's at the Junction,-0.1666591,51.4640182,4,420,1020
488,restaurants,Ev Restaurant,-0.106221,51.5041,4,720,1410
489,restaurants,The Cow,-0.19526811734486,51.519244332609,4,720,1380
490,restaurants,Hubbard & Bell,-0.1223028,51.5171333,4,420,120
491,restaurants,Polo 24 Hour Bar,-0.080269,51.517821,4,360,360
492,restaurants,Taste Of Siam,-0.1397889,51.5356196,4,720,1380
493,restaurants,Taylor St Baristas,-0.0800693035125732,51.5174625387333,4,420,1020
494,restaurants,Il Posto,-0.141846001148224,51.4956817626953,4,1020,1380
495,restaurants,Wild Honey,-0.14322108014182,51.512412840745,4,720,1380
496,restaurants,Free State Coffee,-0.120940864750357,51.5182752731116,4,420,1140
497,restaurants,Reubens,-0.1566207,51.5197718,4,1050,1320
498,restaurants,Balans Soho Society,-0.195225,51.49995,4,480,0
499,restaurants,Ruby,-0.081387,51.525381,4,720,1080
500,restaurants,Cây Tre,-0.132063999772072,51.5132789611816,4,720,1410
501,restaurants,Kanada-Ya,-0.127588,51.51555,4,1020,1350
502,restaurants,Locanda Locatelli,-0.157287,51.515366,4,1140,1410
503,restaurants,The Gilbert Scott,-0.126171112060547,51.5294649409269,4,1050,1350
504,restaurants,Macellaio RC,-0.1773934,51.4926949,4,1080,1380
505,restaurants,The White Horse,-0.119655807154266,51.4529091860846,4,720,180
506,restaurants,Camino,-0.121793746948242,51.5312937277784,4,720,60
507,restaurants,The Gun,-0.00774186701236745,51.5017821676253,4,660,0
508,restaurants,Shaka Zulu,-0.146813318604642,51.541568712465,4,720,120
509,restaurants,St John Bar and Restaurant,-0.101486,51.520481,4,1080,0
510,restaurants,Indian Veg Bhelpoori House,-0.1104193,51.5332581,4,690,0
511,restaurants,Big Easy,-0.1744201,51.4852959,4,720,1410
512,restaurants,Govinda's Restaurant,-0.132808,51.515878,4,720,1260
513,restaurants,10 Greek Street,-0.131063461303711,51.5144981659116,4,720,1410
514,restaurants,Skylon,-0.117614,51.505748,4,720,60
515,restaurants,New London Cafe,-0.0983781045074466,51.546910711,4,480,1080
516,restaurants,Tortilla,-0.1064543,51.5324512,4,690,1380
517,restaurants,Bánh Mì Bay,-0.113895997405052,51.5215301513672,4,600,1320
518,restaurants,Attendant,-0.140738025145255,51.5192470995905,4,480,1080
519,restaurants,Haché,-0.14404785143979,51.539632450556,4,720,1410
520,restaurants,Busaba Bangkok Thai,-0.132421,51.519562,4,720,1410
521,restaurants,Tom's Kitchen,-0.16818173978652,51.490428309019,4,1080,1350
522,restaurants,Abeno Too,-0.128003,51.511791,4,720,1380
523,restaurants,Simurgh,-0.1266,51.511553,4,720,1410
524,restaurants,Randall & Aubin,-0.134205,51.512367,4,720,1380
525,restaurants,Caffe Vergnano 1882,-0.1284225,51.5123887,4,480,0
526,restaurants,Prix Fixe,-0.132173,51.51344,4,720,1410
527,restaurants,The Troubadour,-0.19190476580433,51.488822437999,4,510,840
528,restaurants,Rosa's Spitalfields,-0.0738213,51.5202552,4,720,1380
529,restaurants,Bella Italia,-0.129302,51.510697,4,480,30
530,restaurants,Chipotle Mexican Grill,-0.127137002905573,51.5107880803159,4,690,1350
531,restaurants,Cah-Chi,-0.187322,51.440936,4,1080,1380
532,restaurants,Honest Burger,-0.146075624637846,51.5415616236522,4,690,1380
533,restaurants,Khan's,-0.189636132114284,51.5155662547986,4,720,1425
534,restaurants,Tayyabs,-0.0633161000573224,51.5172233660434,4,720,1410
535,restaurants,Roti Joupa,-0.130435,51.465042,4,720,1380
536,restaurants,Dishoom,-0.125145272091882,51.5363182978271,4,480,0
537,restaurants,222 Veggie Vegan,-0.20324994325474,51.486533837582,4,1050,1350
538,restaurants,B Bar,-0.143766,51.497974,4,720,1380
539,restaurants,Meat Mission,-0.0824617613588274,51.5273008570266,4,660,120
540,restaurants,Continental Stores,-0.1251135,51.5257679,4,480,1080
541,restaurants,Roti Chai,-0.1557135,51.5146226,4,720,1350
542,restaurants,Archipelago,-0.1388012,51.5205732,4,1080,1350
543,restaurants,Gaucho,-0.1360367,51.5200258,4,720,1380
544,restaurants,Banana Tree,-0.166301,51.460635,4,720,1380
545,restaurants,Honey & Co,-0.1407882,51.5238287,4,480,1350
546,restaurants,Som Saa,-0.073734,51.517315,4,1020,0
547,restaurants,Assenheims 56,-0.087597468921709,51.51642518689,4,390,900
548,restaurants,La Fromagerie,-0.098007,51.554113,4,450,1140
549,restaurants,Sunday,-0.1134125,51.5426444,4,510,1080
550,restaurants,Isarn,-0.102698460113175,51.5385356912623,4,1080,1380
551,restaurants,Bengal Restaurant,-0.1888059,51.5183902,4,1050,1410
552,restaurants,Buen Ayre,-0.0614894,51.5367839,4,1080,1350
553,restaurants,Shoreditch Grind,-0.0879659656067133,51.5258391235513,4,420,60
554,restaurants,Seven Stars,-0.113605,51.51496,4,660,1380
555,restaurants,Madison,-0.0961255980623811,51.5139865996517,4,600,1380
556,restaurants,Bailey's Fish and Chips,-0.204150203865423,51.4803741784593,4,720,1380
557,restaurants,Dehesa,-0.139333,51.512781,4,1020,1380
558,restaurants,Cafe Du Marche,-0.1007171,51.5206234,4,1080,1320
559,restaurants,Nordic Bakery,-0.13674108684063,51.5114297969411,4,450,1200
560,restaurants,Royal Oak,-0.069272294901179,51.529519562834,4,720,0
561,restaurants,Alchemy,-0.102642286734127,51.5134264160446,4,420,1020
562,restaurants,Shoryu Ramen,-0.13381448629492,51.508494856125,4,690,0
563,restaurants,Greenberry Café,-0.156334,51.542194,4,540,1320
564,restaurants,La Petite Maison,-0.146243,51.512638,4,1080,1350
565,restaurants,The Toucan,-0.133124215362068,51.5151013043723,4,720,1380
566,restaurants,Franco Manca,-0.11336088180542,51.4617348041813,4,720,1380
567,restaurants,Sri Suwoon,-0.146561,51.491655,4,1050,1380
568,restaurants,Made in Italy,-0.1720436,51.4860996,4,720,1410
569,restaurants,maze Grill Mayfair,-0.151296,51.512403,4,720,0
570,restaurants,Thai Square,-0.130033493041992,51.5074469905955,4,1050,1410
571,restaurants,La Pappardella,-0.190697,51.489143,4,720,0
572,restaurants,Coq D'Argent,-0.090875,51.513261,4,1080,1320
573,restaurants,Bubbledogs,-0.136556625366211,51.5203332564428,4,690,1380
574,restaurants,The Elk in the Woods,-0.103600895400873,51.5352394152221,4,540,1380
575,restaurants,Souk Medina,-0.126581,51.514142,4,660,30
576,restaurants,Fig & Olive,-0.1028092,51.5402351,4,540,1410
577,restaurants,Hedone,-0.267601,51.492589,4,1110,1290
578,restaurants,Côte,-0.1202975,51.5123642,4,480,0
579,restaurants,Les Deux Salons,-0.126536995172501,51.5096092224121,4,720,1380
580,restaurants,Chez Bruce,-0.165659706158412,51.4460393363777,4,1110,1350
581,restaurants,Kensington Square Kitchen,-0.18934552138342,51.500512908048,4,1080,1290
582,restaurants,Terry's Cafe,-0.0984105,51.50069,4,420,840
583,restaurants,A. Wong,-0.1406692,51.4930394,4,1050,1350
584,restaurants,Akari,-0.095823,51.540445,4,1020,1380
585,restaurants,Cantina Laredo,-0.12709379196167,51.5127221204148,4,720,0
586,restaurants,Frenchie Covent Garden,-0.124054,51.510757,4,1050,1350
587,restaurants,The Book Club,-0.0815927,51.5245401,4,480,120
588,restaurants,Franco Manca,-0.17701,51.492465,4,690,1410
589,restaurants,Herman Ze German,-0.12397418784664,51.508297609923,4,420,1380
590,restaurants,The Coach & Horses,-0.130205,51.513274,4,480,0
591,restaurants,Beyond Bread Bakery,-0.136271,51.518955,4,510,1020
592,restaurants,Siam Eatery,-0.120094796436367,51.5120216603011,4,690,1200
593,restaurants,Belsize Kitchen,-0.171910247815731,51.5489516132823,4,480,900
594,restaurants,Tokyo Diner,-0.12930426288311,51.511834541203,4,720,0
595,restaurants,Gaucho,-0.1379546,51.50968,4,720,0
596,restaurants,The George Inn,-0.0902946426058238,51.5040031333562,4,660,1380
597,restaurants,Yalla Yalla,-0.13439,51.512432,4,540,1380
598,restaurants,Tukdin,-0.179068,51.513485,4,1080,1350
599,restaurants,The Breakfast Club,-0.091138,51.504551,4,450,0
600,restaurants,Cambio De Tercio,-0.1836244573671,51.490747737127,4,1140,1410
601,restaurants,The Mayfair Chippy,-0.1533961,51.5131345,4,720,1320
602,restaurants,The Lock Tavern,-0.148285,51.54293,4,720,60
603,restaurants,Tonkotsu Bar & Ramen,-0.132320001721382,51.5130653381348,4,720,1350
604,restaurants,The Swan,-0.17697194507093,51.511656071976,4,600,1410
605,restaurants,BunBunBun Vietnamese Food,-0.0768315,51.5317879,4,720,1380
606,restaurants,Sartori Restaurant,-0.1281075,51.5117202,4,720,1380
607,restaurants,The Ship,-0.18822486471542,51.463754900771,4,660,0
608,restaurants,The Spice Of Life,-0.12975025103142,51.513418975746,4,600,1380
609,restaurants,Balthazar,-0.1212219,51.512493,4,450,0
610,restaurants,Bea's of Bloomsbury,-0.095509,51.513394,4,450,1260
611,restaurants,Heddon Street Kitchen,-0.1393024,51.5107288,4,450,720
612,restaurants,Roti King,-0.1320656,51.5291481,4,1020,1320
613,restaurants,Kensington Creperie,-0.173233349470401,51.4948015280361,4,510,1410
614,restaurants,Ottolenghi,-0.102216303348541,51.5397542479056,4,480,1350
615,restaurants,Orrery,-0.151144,51.522212,4,1110,1350
616,restaurants,Fez Mangal,-0.209042,51.516483,4,720,1410
617,restaurants,Zelman Meats - Soho,-0.1342634,51.5141528,4,720,1350
618,restaurants,Texture,-0.156574989917278,51.514873602131,4,1110,1380
619,restaurants,The Queens Arms,-0.1392194,51.4925789,4,720,1380
620,restaurants,OXO Tower Brasserie,-0.1082162,51.5083619,4,720,1380
621,restaurants,Byron,-0.1040447,51.5351438,4,690,0
622,restaurants,Seoul Bakery,-0.129569,51.517237,4,660,1200
623,restaurants,Cubana,-0.110859948883456,51.5015189520748,4,720,180
624,restaurants,Pix,-0.126387000083923,51.5146598815918,4,720,0
625,restaurants,Pompidou Cafe,-0.12155,51.530968,4,420,1200
626,restaurants,Wahaca,-0.221941877346825,51.5065761803096,4,720,1380
627,restaurants,Jinjuu,-0.138893650736518,51.5123954723956,4,720,90
628,restaurants,Villa Bianca,-0.177771,51.555712,4,1110,1410
629,restaurants,Soho Grind,-0.138379,51.512154,4,450,0
630,restaurants,Donna Margherita,-0.159563,51.464612,4,1080,1380
631,restaurants,Pierre Victoire,-0.1334727,51.5154244,4,720,0
632,restaurants,Mestizo,-0.1387649,51.52752,4,720,1410
633,restaurants,Hawksmoor,-0.0908641121643541,51.5155006968868,4,1020,1350
634,restaurants,Lima,-0.134536,51.517696,4,1050,1350
635,restaurants,Scalini Restaurant,-0.164902999997139,51.4958648681641,4,720,180
636,restaurants,My Old Dutch,-0.190974987903188,51.5025085986798,4,600,1290
637,restaurants,Foxlow Clerkenwell,-0.101713037542709,51.521205140973,4,720,0
638,restaurants,COYA,-0.147974,51.5044732,4,720,60
639,restaurants,Vapiano,-0.1339006,51.5132706,4,660,0
640,restaurants,Kahaila Cafe,-0.071577,51.523786,4,540,1140
641,restaurants,Patty & Bun,-0.150785,51.515786,4,720,1380
642,restaurants,Regency Café,-0.13222007974201,51.4940143171,4,960,1140
643,restaurants,Boisdale of Belgravia,-0.148144,51.4944286,4,720,60
644,restaurants,Four Seasons,-0.131036,51.511974,4,720,0
645,restaurants,The Eagle,-0.110217,51.524436,4,720,1380
646,restaurants,Cafe Japan,-0.195092,51.571131,4,1080,1320
647,restaurants,Plateau Restaurant,-0.016306,51.504632,4,1080,1350
648,restaurants,Jen Cafe,-0.129369,51.511858,4,660,1380
649,restaurants,La Patagonia,-0.139339,51.5352268,4,720,1380
650,restaurants,Launceston Place,-0.18513486877974,51.499092350301,4,1080,1350
651,restaurants,Powder Keg Diplomacy,-0.176452434617724,51.460309277309,4,960,0
652,restaurants,The Fat Bear,-0.10138103121642,51.5131833881734,4,1080,1290
653,restaurants,The Market Porter,-0.091086,51.505117,4,660,1380
654,restaurants,Golden Dragon,-0.1315897,51.5114338,4,720,0
655,restaurants,The Porterhouse Brew Co,-0.1235394,51.5104003,4,720,1410
656,restaurants,Berners Tavern,-0.135977268218994,51.5167515074354,4,420,0
657,restaurants,Pizza East,-0.076235,51.524137,4,720,120
658,restaurants,Stax Diner,-0.138746,51.512349,4,720,0
659,restaurants,Wok To Walk,-0.1334942,51.5124035,4,690,60
660,restaurants,Bubblewrap Waffle,-0.131887,51.511269,4,750,1230
661,restaurants,Portobello Garden Caffe',-0.2069201,51.5180217,4,600,1320
662,restaurants,Farmacy,-0.1926381,51.515446,4,1080,1320
663,restaurants,Needoo Grill,-0.062574,51.517049,4,690,1410
664,restaurants,Tombo,-0.17392901890565,51.49494345246,4,690,1290
665,restaurants,Gay Hussar,-0.131278,51.514865,4,1050,1380
666,restaurants,Said,-0.136738,51.5132248,4,660,1380
667,restaurants,Abeno,-0.125158,51.5175591,4,720,1320
668,restaurants,Meat Liquor,-0.14859106286501,51.5155024941546,4,660,120
669,restaurants,HotBox,-0.0733181834220886,51.5170698872586,4,1080,0
670,restaurants,Herman Ze German,-0.135596556276787,51.5191705290611,4,660,0
671,restaurants,The Ivy Market Grill,-0.1227433,51.5114468,4,480,0
672,restaurants,The Cookbook Cafe,-0.150429010391235,51.5035870783075,4,1080,1320
673,restaurants,Masala Zone Earls Court,-0.19398,51.49308,4,1050,1380
674,restaurants,The Thomas Cubitt,-0.15080451196477,51.493738247163,4,720,1380
675,restaurants,Alain Ducasse at The Dorchester,-0.152435302734375,51.5075671902288,4,1110,1290
676,restaurants,Little Georgia,-0.0654471,51.5331232,4,540,1290
677,restaurants,Mint Leaf,-0.1311519936102,51.508109406292,4,720,60
678,restaurants,Cafe Spice Namaste,-0.07053,51.5115957,4,1110,1350
679,restaurants,Sushi Bar Atariya,-0.15030826259542,51.514667485804,4,660,1200
680,restaurants,The River Cafe,-0.224279266409326,51.4840302245571,4,1140,1380
681,restaurants,The Dove,-0.0618530896556768,51.5363390811417,4,720,1380
682,restaurants,Señor Ceviche,-0.138746,51.512349,4,720,30
683,restaurants,Maroush II,-0.164357,51.49724,4,720,240
684,restaurants,Veeraswamy,-0.137964,51.509971,4,1050,1350
685,restaurants,Duck & Waffle Local,-0.132749820495633,51.5094175706263,4,480,0
686,restaurants,Bob Bob Ricard,-0.137234320867947,51.5123099662701,4,1050,60
687,restaurants,Farm Girl Cafe,-0.200769876546774,51.5120686916922,4,510,990
688,restaurants,The Square,-0.14400838955383,51.510677543225,4,1080,1350
689,restaurants,Joy King Lau,-0.13113,51.511104,4,720,1410
690,restaurants,Fernandez & Wells,-0.136428,51.512986,4,660,1380
691,restaurants,Honest Burgers,-0.1178225,51.5308718,4,690,1380
692,restaurants,Saigon Saigon,-0.240878,51.493341,4,1080,1410
693,restaurants,The Gate,-0.225411996245384,51.4902572631836,4,360,1320
694,restaurants,Café Kick,-0.10918,51.526102,4,720,0
695,restaurants,The Breakfast Club,-0.0811266326024151,51.5269878207578,4,480,0
696,restaurants,Daylesford Organic,-0.2004594,51.5145345,4,480,1290
697,restaurants,Builders Arms,-0.188299279589993,51.4994295095615,4,660,1380
698,restaurants,The Orange,-0.152324890517983,51.4905695688428,4,480,0
699,restaurants,Restaurant Gordon Ramsay,-0.161966,51.485833,4,1110,1335
700,restaurants,The Ledbury,-0.200107,51.516819,4,1110,1350
701,restaurants,The Grazing Goat,-0.15823586449841,51.515378341447,4,450,1410
702,restaurants,The Blue Legume,-0.103168003261089,51.541374206543,4,510,1380
703,restaurants,Koshari Street,-0.126831103538283,51.5109410206983,4,690,1380
704,restaurants,The Marquis Cornwallis,-0.12502513122867,51.524567356394,4,600,0
705,restaurants,MASH,-0.136283427186872,51.5110508073766,4,720,60
706,restaurants,Mildreds,-0.136484995484352,51.5130233764648,4,720,1380
707,restaurants,Vapiano,-0.0976446076911408,51.5055927244915,4,660,1380
708,restaurants,PAUL Covent Garden Le Restaurant de Paul,-0.124783,51.511152,4,420,1320
709,restaurants,Curious Yellow Kafé,-0.0838136672973633,51.52954503532,4,480,1350
710,restaurants,Mien Tay,-0.07708,51.53052,4,720,1380
711,restaurants,Tapas Brindisa,-0.090526,51.505063,4,600,1410
712,restaurants,The Old School Yard,-0.0880482846557697,51.5003479610291,4,1050,30
713,restaurants,Hook,-0.14539088465574,51.5370862317709,4,720,1350
714,restaurants,Sticks'n'Sushi,-0.1236238,51.5110542,4,720,1380
715,restaurants,Shoryu Ramen,-0.1343706,51.5107546,4,690,0
716,restaurants,Roka,-0.135395835697745,51.5189741386939,4,1050,1410
717,restaurants,Bread Street Kitchen,-0.0947269,51.5134808,4,420,60
718,restaurants,Original Lahore Kebab House,-0.0630949,51.51461,4,690,60
719,restaurants,Sandwich Shop,-0.1839306,51.4980207,4,330,1140
720,restaurants,The Riding House Café,-0.140664577282208,51.5183614862654,4,480,1320
721,restaurants,Patara,-0.141590774592026,51.5133650874508,4,1050,1350
722,restaurants,Siam Central,-0.13442571173014,51.518464085987,4,780,1380
723,restaurants,Levant,-0.150666,51.516215,4,720,150
724,restaurants,Okan,-0.111575275863771,51.4626642688451,4,1080,1320
725,restaurants,Le Relais de Venise L'Entrecôte,-0.151117,51.518264,4,1080,1350
726,restaurants,Tsujiri,-0.133540146052837,51.5119331851363,4,720,1350
727,restaurants,Restaurant Story,-0.0777639515951396,51.5027791351505,4,1110,1380
728,restaurants,Phoenix Cinema,-0.163737103108435,51.5885134384397,4,660,1380
729,restaurants,My Old Dutch,-0.121954230547052,51.5175498062912,4,660,1350
730,restaurants,The Owl & Pussycat,-0.0755564,51.5242281,4,660,0
731,restaurants,Hakkasan Mayfair,-0.144935268434918,51.5103202323384,4,1080,60
732,restaurants,Elliot's,-0.091669000685215,51.5056571960449,4,1080,1320
733,restaurants,Sushi Tetsu,-0.103991949209005,51.5232787973028,4,1020,1290
734,restaurants,Tas Pide,-0.096210602811163,51.507789732069,4,0,1410
735,restaurants,Trinity Restaurant,-0.141464751282,51.463486516166,4,1110,1320
736,restaurants,Kitchen Table,-0.136485,51.520415,4,1080,1320
737,restaurants,Café 1001,-0.072163638007535,51.520944957404,4,360,0
738,restaurants,Café Boheme,-0.130649998784065,51.5133171081543,4,450,180
739,restaurants,Bleecker,-0.0759276,51.5191762,4,690,1260
740,restaurants,Hix - Soho,-0.136461530845653,51.5111269794589,4,720,1410
741,restaurants,The Blackbird,-0.1922929,51.4919236,4,480,1410
742,restaurants,Zaika of Kensington,-0.187171,51.502166,4,1050,1350
743,restaurants,Fishcotheque,-0.111762,51.504094,4,660,1380
744,restaurants,Orjowan Lebanese Cuisine,-0.193373873798701,51.4928295219961,4,720,1380
745,restaurants,Cafe Helen,-0.164712,51.516103,4,960,360
746,restaurants,Efes,-0.0696553269835931,51.5161134997069,4,480,60
747,restaurants,The Wolseley,-0.141012,51.507617,4,420,0
748,restaurants,Bibendum,-0.16883345515649,51.49331458816,4,690,1320
749,restaurants,Lotus,-0.0161981516153809,51.4970261273306,4,720,1350
750,restaurants,Fish Bone,-0.140496,51.522088,4,690,1380
751,restaurants,Bocca Di Lupo,-0.133953506589517,51.5116836912991,4,1020,1380
752,restaurants,Zizzi,-0.140651,51.497522,4,720,1380
753,restaurants,Roadhouse Restaurant,-0.115263869472159,51.5132019551881,4,1050,180
754,restaurants,Jakobs,-0.18382193239086,51.49905885109,4,480,1380
755,restaurants,Goodman,-0.142332,51.513125,4,720,1380
756,restaurants,Crate Brewery,-0.0223574614793165,51.5426847134197,4,720,0
757,restaurants,The Wet Fish Café & Brasserie,-0.191448,51.551319,4,600,1380
758,restaurants,Patogh,-0.166203,51.5178187,4,750,1380
759,restaurants,Meat People,-0.101694,51.536386,4,720,0
760,restaurants,Black Cat,-0.055691,51.5513968,4,540,1320
761,restaurants,Franzè & Evans,-0.072615360595021,51.524802942693,4,480,1170
762,restaurants,Clutch,-0.071047841107641,51.5297513967972,4,1080,1350
763,restaurants,Steak & Co.,-0.128617345486412,51.5097794728296,4,660,0
764,restaurants,The Bridge,-0.0782256576720783,51.52840986389,4,720,120
765,restaurants,Ping Pong,-0.115699768066406,51.5057508064378,4,660,0
766,restaurants,Benito's Hat,-0.14162806261341,51.516137604339,4,690,1380
767,restaurants,Baltic Bar and Restaurant,-0.104866,51.503466,4,1050,1380
768,restaurants,Morito,-0.108857996761799,51.5258712768555,4,1020,1380
769,restaurants,Pret A Manger,-0.124717,51.523375,4,330,1380
770,restaurants,Vapiano,-0.141202,51.516375,4,660,0
771,restaurants,York & Albany,-0.146165,51.536206,4,420,30
772,restaurants,Le Pain Quotidien,-0.13916,51.5144366,4,450,1320
773,restaurants,Burgers & Cocktails by Giraffe,-0.150836326274038,51.5154191154322,4,660,1380
774,restaurants,Hare & Tortoise,-0.122894760945433,51.5238573117279,4,720,1380
775,restaurants,Shot Espresso,-0.198225594459471,51.4806937260713,4,360,1350
776,restaurants,Leon,-0.07669,51.519786,4,480,1350
777,restaurants,The Ship,-0.13426389935721,51.514035555048,4,720,1380
778,restaurants,Gauthier Soho,-0.131453,51.512749,4,1110,1350
779,restaurants,Brawn,-0.0702632793320869,51.5289277153112,4,1080,1380
780,restaurants,The Barbary,-0.126241173962971,51.5144480132327,4,1020,1320
781,restaurants,Kennedy's Of Goswell Road,-0.099733,51.526192,4,660,1320
782,restaurants,Aqua Shard,-0.0865149965538268,51.5044480395328,4,1080,1350
783,restaurants,Mosob Restaurant,-0.20092662202276,51.523894962105,4,1080,0
784,restaurants,Kanada-Ya,-0.131954,51.509282,4,1020,1350
785,restaurants,The Bull & Last,-0.148744583129883,51.5589568439571,4,720,0
786,restaurants,Indian Zing,-0.2370768,51.493346,4,1080,1380
787,restaurants,Hush,-0.145634,51.51271,4,480,1380
788,restaurants,Hakkasan,-0.13180578932657,51.5171482803943,4,1050,30
789,restaurants,The Good Life Eatery,-0.1653394,51.4919548,4,450,1200
790,restaurants,The Churchill Arms,-0.194781,51.5068261,4,660,0
791,restaurants,Ace Café London,-0.27782263547976,51.5412896239787,4,420,1380
792,restaurants,Duck & Waffle,-0.08094,51.516178,4,0,0
793,restaurants,Paolina's Thai Cafe,-0.118457,51.530469,4,720,1320
794,restaurants,St Stephen's Tavern,-0.125518888411698,51.5011023479342,4,600,1410
795,restaurants,The Duck and Rice,-0.135082,51.513487,4,720,0
796,restaurants,Princess Garden Of Mayfair,-0.153083,51.512773,4,1080,0
797,restaurants,Bottega Prelibato,-0.081457,51.52612,4,480,1380
798,restaurants,Yumchaa Camden Parkway,-0.144227737868675,51.5381825847909,4,480,1200
799,restaurants,Misato,-0.131884510996825,51.510922411191,4,720,1350
800,restaurants,The Clove Club,-0.0791196,51.5270489,4,1080,1320
801,restaurants,Roast To Go,-0.0910057691819765,51.5056071178748,4,600,1080
802,restaurants,Vasco & Piero's Pavilion Restaurant,-0.136932,51.514775,4,1050,1350
803,restaurants,fish!,-0.0902772509261922,51.5057616189729,4,660,1380
804,restaurants,Scooter Caffè,-0.11381534473676,51.500341224864,4,510,0
805,restaurants,Hare and Tortoise,-0.103888651528,51.513179121039,4,690,1380
806,restaurants,Five Guys,-0.126950700680946,51.5118117927224,4,660,0
807,restaurants,Jackson + Rye,-0.133225539845631,51.5126094157189,4,480,1380
808,restaurants,Pieminister,-0.110384,51.508097,4,600,1050
809,restaurants,Red Dog Saloon,-0.080643577066601,51.527391991854,4,720,30
810,restaurants,Blacklock,-0.134762,51.511687,4,1020,1410
811,restaurants,Gallipoli Again,-0.102699,51.539127,4,660,0
812,restaurants,Nando's,-0.193867562644376,51.4925913217791,4,690,0
813,restaurants,Côte,-0.134374,51.514231,4,480,0
814,restaurants,The Culpeper,-0.0730395,51.5169119,4,660,120
815,restaurants,Taquería,-0.196085,51.5148344,4,720,1410
816,restaurants,Katzenjammers,-0.0910319201774978,51.504827352652,4,720,0
817,restaurants,Il Portico,-0.2000019,51.4985799,4,1080,1380
818,restaurants,Dinings,-0.164761,51.519827,4,1080,1350
819,restaurants,Imperial China,-0.130051,51.511752,4,720,0
820,restaurants,Chicken Shop,-0.1443329,51.55445,4,1020,0
821,restaurants,Nando's,-0.131727,51.514126,4,660,1410
822,restaurants,Navarro's Restaurant,-0.13655,51.519895,4,1080,1320
823,restaurants,Pimlico Fresh,-0.14021524722041,51.492391374275,4,450,900
824,restaurants,Le Boudin Blanc,-0.147213,51.506485,4,1080,1380
825,restaurants,Smack Lobster Roll,-0.132043,51.5126361,4,660,1320
826,restaurants,The Oak,-0.19772312832728,51.518713744204,4,1110,1350
827,restaurants,Makan Café,-0.207198,51.519035,4,540,1290
828,restaurants,The Delaunay,-0.118225363760461,51.513082485489,4,420,0
829,restaurants,Pizza Pilgrims,-0.1391028,51.5124437,4,720,1380
830,restaurants,The Counting House,-0.0850051,51.5132994,4,660,1380
831,restaurants,Cirilo's Noodle Bar & Grill,-0.0681250020861626,51.5107231140137,4,690,1380
832,restaurants,Gourmet Burger Kitchen,-0.19160360032175,51.51554140335,4,660,1380
833,restaurants,Belgo Noord,-0.1509778,51.5434712,4,720,1380
834,restaurants,Papaya,-0.1343231,51.5141431,4,1080,1380
835,restaurants,Fish Central,-0.097075,51.527539,4,1020,1380
836,restaurants,Cocoro,-0.1508015,51.5167205,4,1080,1380
837,restaurants,Rock & Sole Plaice,-0.125147514045238,51.5148451460403,4,690,1410
838,restaurants,Towpath Café,-0.0812172889709473,51.5371934005833,4,480,1260
839,restaurants,Fire & Stone,-0.123693,51.51076,4,720,60
840,restaurants,Hawksmoor,-0.166872303554917,51.4974592155569,4,1020,1350
841,restaurants,The Harrison,-0.1206015435123,51.527533751588,4,660,1380
842,restaurants,Punjab,-0.12596,51.514992,4,720,1380
843,restaurants,Scott's,-0.150917,51.5098472,4,720,1350
844,restaurants,Medlar,-0.177386000752449,51.4833984375,4,1110,1350
845,restaurants,The Chandos,-0.126792,51.509588,4,660,1380
846,restaurants,Addie's Thai Cafe,-0.194675,51.493824,4,1080,1380
847,restaurants,Indian City,-0.104524,51.513788,4,1050,0
848,restaurants,Ping Pong,-0.150888,51.5153116,4,660,1410
849,restaurants,Dotori,-0.1050199,51.5646131,4,1020,1320
850,restaurants,Bizzarro,-0.1772311,51.514853,4,720,1410
851,restaurants,The Blues Kitchen,-0.0802154487713014,51.5265204642608,4,720,120
852,restaurants,Chop Shop,-0.1320323,51.5085831,4,720,0
853,restaurants,MEATmarket,-0.121881224701809,51.5115639700479,4,720,1380
854,restaurants,Lemonia,-0.1570446,51.5416545,4,1080,1380
855,restaurants,Le Pain Quotidien,-0.126145,51.531437,4,330,1320
856,restaurants,Happy Days,-0.074962,51.516515,4,660,1260
857,restaurants,Baiwei,-0.1291729,51.5117895,4,720,1350
858,restaurants,Milk,-0.1510286,51.444649,4,480,1020
859,restaurants,Waterloo Bar & Kitchen,-0.10925873908147,51.501814250534,4,720,1380
860,restaurants,Dishoom,-0.1397337,51.5129919,4,480,0
861,restaurants,The Borough Barista,-0.16090849657059,51.514461025878,4,450,990
862,restaurants,Dinner by Heston Blumenthal,-0.159966,51.502163,4,1080,1350
863,restaurants,Busaba,-0.134135,51.513809,4,720,1410
864,restaurants,Mr Fogg's Tavern,-0.1268381,51.5110196,4,720,60
865,restaurants,Rules Restaurant,-0.1232501,51.5108207,4,720,1410
866,restaurants,Orsini,-0.169932,51.496176,4,480,1380
867,restaurants,Black Roe,-0.1421783,51.5123127,4,1080,1365
868,restaurants,Tramshed,-0.081622501460487,51.526005638273,4,690,0
869,restaurants,Gourmet Burger Kitchen,-0.1936208,51.492758,4,660,1410
870,restaurants,Crumbs and Doilies,-0.138746,51.512349,4,660,1140
871,restaurants,The Barge House,-0.0808728,51.5372997,4,600,1380
872,restaurants,Candy Café,-0.131473,51.511873,4,720,1410
873,restaurants,Lobos Meat and Tapas,-0.0891513,51.5056258,4,1050,1380
874,restaurants,Roka - Mayfair,-0.1535779,51.5128278,4,720,1410
875,restaurants,Oversea Chinese Restaurant,-0.1305568,51.5121371,4,720,0
876,restaurants,Shackfuyu,-0.130199000239372,51.5137786865234,4,1050,1380
877,restaurants,Il Bordello,-0.0596473155682886,51.5032154338602,4,1080,1380
878,restaurants,Fairuz,-0.151926,51.518214,4,720,1410
879,restaurants,The Garrison,-0.0816385,51.5007804,4,480,0
880,restaurants,Kimchee,-0.116375684738159,51.5180967826371,4,1020,1350
881,restaurants,Corner Room,-0.0555753707885742,51.5306663420273,4,720,1320
882,restaurants,The Faltering Fullback,-0.108207944110859,51.5685286055513,4,720,0
883,restaurants,Royal China,-0.0280016434014305,51.5055789413133,4,720,1380
884,restaurants,Byron,-0.1824925,51.4947669,4,690,0
885,restaurants,Afghan Kitchen,-0.103037509845308,51.5357864609294,4,1050,1380
886,restaurants,Look Mum No Hands!,-0.096938452042226,51.524013227609,4,450,1320
887,restaurants,The Harwood Arms,-0.196470990454087,51.4829113087309,4,720,0
888,restaurants,34 Mayfair,-0.152624994516373,51.5105628967285,4,1020,1350
889,restaurants,Nando's,-0.1245423,51.5103409,4,690,1410
890,restaurants,Galvin at Windows,-0.15030596774409,51.505509179667,4,660,120
891,restaurants,Thai Metro,-0.135331,51.5192945,4,720,1020
892,restaurants,Donostia,-0.160959,51.514732,4,1080,1380
893,restaurants,Dishoom,-0.1269579217873,51.512447030091,4,480,0
894,restaurants,Shimogamo,-0.145711,51.537431,4,1080,1320
895,restaurants,Mamu?ka!,-0.100232,51.492948,4,540,0
896,restaurants,The Golden Hind,-0.151026993989944,51.5180015563965,4,1080,1320
897,restaurants,San Carlo Cicchetti,-0.135087305946757,51.5095021385658,4,480,1410
898,restaurants,Opera Tavern,-0.1204465,51.5124698,4,1020,1410
899,restaurants,Noura,-0.147859,51.4981193,4,600,1410
900,restaurants,The Orange Buffalo,-0.0715720653533936,51.5191115545126,4,690,1320
901,restaurants,Gourmet Burger Kitchen,-0.1230541,51.5105876,4,690,1380
902,restaurants,Burger & Lobster,-0.1455240253782,51.50702196373,4,720,1350
903,restaurants,Marcus,-0.1556969,51.5016612,4,1080,1350
904,restaurants,Smiths Of Smithfield,-0.1028274,51.5194721,4,420,30
905,restaurants,Balans Soho Society,-0.132572578634624,51.5127825041885,4,450,360
906,restaurants,Itsu,-0.139795,51.507815,4,480,1320
907,restaurants,Eat Tokyo,-0.117510594427586,51.5199176811869,4,1080,1410
908,restaurants,Sourced Market,-0.126145,51.531438,4,420,1260
909,restaurants,The Mango Tree,-0.147766,51.498517,4,720,1410
910,restaurants,Boro Bistro,-0.0887993531057241,51.5061193239226,4,720,1350
911,restaurants,Cereal Killer Cafe,-0.0717540010809898,51.5241012573242,4,570,1140
912,restaurants,Spaghetti House,-0.159620001912117,51.5140113830566,4,720,1380
913,restaurants,Lucky Voice Karaoke,-0.103168,51.541373,4,900,120
914,restaurants,The Five Fields,-0.1611916,51.4916609,4,1110,1320
915,restaurants,Lanzhou Noodle Bar,-0.127834377873126,51.5116034713013,4,600,120
916,restaurants,Muhib Indian Cuisine,-0.0720652,51.5200135,4,720,120
917,restaurants,Byron,-0.0839430019259453,51.5297584533691,4,690,1380
918,restaurants,Trishna,-0.153047,51.518294,4,1080,1380
919,restaurants,The Tiroler Hut Restaurant,-0.189546,51.5155202,4,1110,60
920,restaurants,Hélène Darroze,-0.149721418318054,51.5103135191693,4,1110,1320
921,restaurants,Cyprus Mangal,-0.140597726101872,51.492131370582,4,720,0
922,restaurants,The Breakfast Club,-0.162915,51.460938,4,480,0
923,restaurants,Mohsen,-0.20302,51.495177,4,720,1380
924,restaurants,Annie's,-0.2778904,51.4847798,4,600,1350
925,restaurants,Poppies,-0.074075,51.5202629,4,660,1410
926,restaurants,MAMIE'S,-0.120481,51.51248,4,600,1380
927,restaurants,Le Pain Quotidien,-0.196546,51.508836,4,420,1320
928,restaurants,Simply Indian,-0.0914945,51.5005913,4,1080,0
929,restaurants,Woody Grill,-0.14189511136749,51.539693431101,4,660,180
930,restaurants,Electric Diner,-0.2048939,51.5155701,4,480,60
931,restaurants,Cafe Loren,-0.14603004221887,51.5418340129278,4,510,1110
932,restaurants,The Pineapple,-0.13954697681192,51.552982223333,4,720,0
933,restaurants,Chutney Mary,-0.138903,51.505661,4,1080,1350
934,restaurants,Flat Iron,-0.1384008,51.51212,4,720,1380
935,restaurants,Nipa,-0.175343,51.512204,4,1110,1350
936,restaurants,E&O,-0.205848282245171,51.5158364710502,4,1080,1380
937,restaurants,Fumo,-0.1269062,51.5099474,4,480,0
938,restaurants,Ya Hala,-0.174393996596336,51.5157585144043,4,660,0
939,restaurants,Prima Sapori Italia,-0.122399630007294,51.511382579241,4,600,1320
940,restaurants,Al Arez,-0.164846190487083,51.5165257853047,4,540,60
941,restaurants,North Sea Fish Restaurant,-0.125051,51.526474,4,1020,1320
942,restaurants,My Old Place,-0.077013670956112,51.5167344920989,4,1020,1380
943,restaurants,Ping Pong Soho,-0.13853844255209,51.5144372406878,4,660,0
944,restaurants,The Table Cafe,-0.099671,51.505604,4,450,1410
945,restaurants,Santa Maria del Sur,-0.1497402,51.4701274,4,1080,0
946,restaurants,Jamie Oliver's Fifteen,-0.0902918745871013,51.5285928278217,4,1080,1320
947,restaurants,The Somers Town Coffee House,-0.130071,51.52985,4,480,1410
948,restaurants,The Dovetail,-0.103924836781924,51.5232408423047,4,720,1380
949,restaurants,Two Point,-0.16076945876885,51.519670258743,4,720,1380
950,restaurants,Kinkao,-0.0715022,51.5225483,4,1050,0
951,restaurants,Montparnasse Cafe,-0.1885342,51.5005205,4,480,1020
952,restaurants,Beijing Dumpling,-0.130126986751855,51.5116712818242,4,720,1410
953,restaurants,Cafe East,-0.0415420532226562,51.4962937564236,4,1050,1350
954,restaurants,Taro Restaurants,-0.1356103,51.5113323,4,720,1350
955,restaurants,The Easton,-0.11139933433552,51.526323227476,4,720,60
956,restaurants,Icebar London,-0.139727538098214,51.5112519570003,4,840,1425
957,restaurants,Big Apple Hot Dogs,-0.116492003202438,51.5361747741699,4,720,1380
958,restaurants,The Dickens Inn,-0.070204,51.506826,4,660,1410
959,restaurants,Jin Kichi,-0.1784654,51.5573015,4,1080,1380
960,restaurants,Hummus Bros,-0.13384500430394,51.513410770264,4,510,1320
961,restaurants,Halepi,-0.18310297196364,51.511329946838,4,720,0
962,restaurants,Byron,-0.120643,51.511977,4,690,0
963,restaurants,Coppa Club Tower Bridge,-0.0797002427277138,51.5081131953188,4,450,0
964,restaurants,Yauatcha,-0.135128831605189,51.5137076071076,4,720,1350
965,restaurants,Bill's,-0.1353288,51.5118179,4,480,0
966,restaurants,Gigs,-0.135294,51.521001,4,600,1365
967,restaurants,Umu,-0.144433,51.511423,4,1080,1380
968,restaurants,Quaglino's,-0.138594,51.50723,4,1050,1380
969,restaurants,Maison D'être,-0.102052688598633,51.5458012795971,4,450,1080
970,restaurants,The Rajdoot,-0.153431,51.5205999,4,720,0
971,restaurants,BAO,-0.133671998977661,51.5190773010254,4,720,1350
972,restaurants,Temple of Seitan,-0.054151803576945,51.5458702483097,4,720,1200
973,restaurants,Viet Grill,-0.0776418872389903,51.5290074764998,4,660,1410
974,restaurants,Home House,-0.15665305008251,51.516150244144,4,420,60
975,restaurants,Inamo,-0.134597,51.514423,4,720,0
976,restaurants,The Windmill,-0.142204,51.512565,4,660,1380
977,restaurants,Portrait Restaurant,-0.128273963928223,51.5091030464907,4,600,1260
978,restaurants,Smith and Wollensky,-0.122259323817679,51.5094223677469,4,720,0
979,restaurants,The Kings Arms,-0.146137,51.506351,4,720,1380
980,restaurants,Hotel Café Royal,-0.135962,51.510171,4,0,0
981,restaurants,Bloomsbury Coffee House,-0.126389201213277,51.525250540481,4,480,990
982,restaurants,On The Bab,-0.0815281434501047,51.5267653903883,4,690,1350
983,restaurants,The Jugged Hare,-0.090935,51.520789,4,420,0
984,restaurants,The Breakfast Club,-0.135406,51.514733,4,480,1320
985,restaurants,Tapas Brindisa Soho,-0.13664590618241,51.513468865838,4,720,1380
986,restaurants,E. Mono,-0.1411582,51.5490563,4,660,1410
987,restaurants,The Victoria,-0.17119959969309,51.51350403679,4,660,1380
988,restaurants,Kokeb Ethiopian Cuisine,-0.115300312133615,51.5462806196798,4,720,1320
989,restaurants,Kintan Japanese BBQ,-0.113517733307407,51.518378197249,4,720,1380
990,restaurants,Chettinad Restaurant,-0.132790997624397,51.5184135437012,4,720,1410
991,restaurants,Flat Iron,-0.129648385965984,51.515075713969,4,720,0
992,restaurants,Grand Imperial London,-0.14551,51.49576,4,720,1380
993,restaurants,Itadaki Zen,-0.116012,51.5296729,4,1080,1320
994,restaurants,Woodlands,-0.151165,51.5180611,4,1080,1380
995,restaurants,Bone Daddies,-0.1338407,51.5127636,4,720,1410
996,restaurants,KIN,-0.10987964543908,51.521448855755,4,1050,1350
997,restaurants,Franco Manca,-0.122907,51.510954,4,720,1380
998,restaurants,Daphne's,-0.1678684,51.4937152,4,1050,1410
999,restaurants,The Greenwich Union,-0.0095805481062472,51.47653480684,4,720,1380
1000,restaurants,Bentley's,-0.137853830688528,51.5095274197208,4,690,1380
1001,restaurants,ROKA Canary Wharf,-0.0189666,51.5049047,4,1050,1380
1002,restaurants,JW Steakhouse,-0.155222954847134,51.5098589151766,4,390,1380
1003,restaurants,Mama Thai,-0.0746449,51.51812,4,690,1020
1004,restaurants,The Temple Brew House,-0.112786529265547,51.5127562447879,4,720,0
1005,restaurants,Andina,-0.077134990126122,51.5243208695971,4,480,1380
1006,restaurants,Wright Brothers - Soho,-0.138751,51.512345,4,720,1380
1007,restaurants,Tap Coffee,-0.135823,51.515468,4,480,1140
1008,restaurants,Dishoom,-0.076594190862934,51.5245310066818,4,480,0
1009,restaurants,Shake Shack,-0.122651060069756,51.5117800770305,4,660,1380
1010,restaurants,Kazan,-0.140787,51.492652,4,1050,1320
1011,restaurants,The Champion- Notting Hill,-0.1922685,51.5100255,4,720,0
1012,restaurants,Flat Iron,-0.124100585093387,51.5108326561998,4,720,1380
1013,restaurants,Pizza Pilgrims,-0.1332208,51.5149474,4,720,1350
1014,restaurants,Negril,-0.1210799,51.4528373,4,1020,1350
1015,restaurants,Typing Room,-0.055754,51.53049,4,1080,1320
1016,restaurants,Haymarket Hotel,-0.131199,51.508353,4,0,0
1017,restaurants,The Breakfast Club,-0.0783239975571632,51.5183525085449,4,450,0
1018,restaurants,Gaucho - Tower Bridge,-0.0801444053649902,51.5048025184846,4,720,1380
1019,restaurants,Hummus Bros,-0.121802659471964,51.5192828090293,4,510,1260
1020,restaurants,Freebird Burritos,-0.13368,51.512248,4,690,900
1021,restaurants,Caffe Forum,-0.1823738,51.4936013,4,420,0
1022,restaurants,Muriel's Kitchen,-0.174468,51.494117,4,480,1380
1023,restaurants,Chipotle Mexican Grill,-0.129595035327476,51.5146097765921,4,660,1380
1024,restaurants,E Pellicci,-0.0635611602914123,51.5265159984371,4,420,960
1025,restaurants,Salaam Namaste,-0.1179336,51.5236422,4,720,1410
1026,restaurants,Leon,-0.1393937,51.5141685,4,420,1320
1027,restaurants,Gymkhana,-0.1416607,51.50842,4,1050,1350
1028,restaurants,The Narrow,-0.037876890284846,51.509671105687,4,720,1380
1029,restaurants,Pizarro,-0.081331,51.4984322,4,720,1350
1030,restaurants,The Gate,-0.105397000908852,51.5304298400879,4,720,1320
1031,restaurants,Baozi Inn,-0.1292444,51.5118233,4,720,1380
1032,restaurants,Byward Kitchen And Bar,-0.0789638981223106,51.5092887647333,4,480,960
1033,restaurants,Seven at Brixton,-0.113163,51.462006,4,540,1410
1034,restaurants,Sagar,-0.1327689,51.5184954,4,720,1380
1035,restaurants,BAO - Soho,-0.136528484994449,51.5132221949841,4,720,1350
1036,restaurants,Yorica!,-0.134513,51.51435,4,720,0
1037,restaurants,Kerbisher & Malt,-0.2226777,51.4974645,4,720,1320
1038,restaurants,Lantana Cafe,-0.1359559,51.5189676,4,480,1260
1039,restaurants,Burger & Lobster,-0.140991,51.517375,4,720,1350
1040,restaurants,Kipferl,-0.10339315152949,51.535247538411,4,540,1320
1041,restaurants,Sichuan Folk,-0.072425,51.520178,4,720,1410
1042,restaurants,Kitchen W8,-0.1969429,51.4992288,4,1080,1350
1043,restaurants,Barrafina,-0.1258185,51.5093806,4,1020,1380
1044,restaurants,Candid Café,-0.105091,51.532232,4,720,1320
1045,restaurants,The Monocle Cafe,-0.154666668198166,51.5188109085709,4,420,1200
1046,restaurants,OXO Tower Restaurant,-0.1081281,51.508064,4,1080,1380
1047,restaurants,The White Hart,-0.11069307491512,51.504794060355,4,720,0
1048,restaurants,Bumpkin South Kensington,-0.1790326,51.4918871,4,660,1380
1049,restaurants,Chutneys,-0.13758647273438,51.526885742863,4,720,1380
1050,restaurants,The Marquis of Westminster,-0.140515,51.491901,4,660,0
1051,restaurants,Tommi's Burger Joint,-0.1512931,51.5176716,4,690,1350
1052,restaurants,Holly Bush,-0.1793261,51.5579124,4,720,1380
1053,restaurants,Bill's,-0.126214027404785,51.5128556600778,4,480,1380
1054,restaurants,Bea's of Bloomsbury,-0.1160384,51.5210189,4,450,1080
1055,restaurants,About Thyme,-0.1399836,51.4924969,4,1050,1320
1056,restaurants,My Village Café,-0.148285,51.54293,4,540,1260
1057,restaurants,Thai Taste,-0.1867902,51.4948417,4,1080,1380
1058,restaurants,Phat Phuc Noodle Bar,-0.16910415667953,51.48762124782,4,660,1080
1059,restaurants,The Pavilion Cafe,-0.042769,51.532749,4,480,990
1060,restaurants,Sketch,-0.14159163911048,51.5127614699071,4,480,120
1061,restaurants,Cây Tre,-0.081641,51.526887,4,660,1380
1062,restaurants,The Modern Pantry,-0.103575187145258,51.5230301121618,4,480,1380
1063,restaurants,Beany Green,-0.180045690126235,51.519873314712,4,420,1080
1064,restaurants,Honest Burgers,-0.132943,51.513388,4,690,1380
1065,restaurants,Hereford Road,-0.193685120654568,51.5138451124642,4,1080,1350
1066,restaurants,Mangal Ocakbasi,-0.074224217938481,51.551977529109,4,720,0
1067,restaurants,Beigel Shop,-0.0718118,51.5243997,4,0,0
1068,restaurants,Bar Boulud,-0.1602532520838,51.502029603588,4,720,60
1069,adultentertainment,Stringfellows,-0.126787,51.512275,4,1260,300
1070,adultentertainment,Metropolis Strip Club,-0.056743,51.532447,4,960,240
1071,adultentertainment,Windmill Nightclub,-0.134101,51.511394,4,1230,330
1072,adultentertainment,Spearmint Rhino Europe,-0.136517,51.523511,4,1080,240
1073,adultentertainment,Combined Massage,-0.164725226782252,51.5503900652585,4,630,1230
1074,adultentertainment,Dogging Action,-0.1085508,51.5194191,4,0,0
1075,adultentertainment,Cherry Touch Oriental Massage London,-0.187901,51.513425,4,600,180
1076,adultentertainment,The Red Rooms,-0.120163,51.516351,4,1320,180
1077,adultentertainment,Chariots - Limehouse,-0.0402521,51.5126308,4,660,660
1078,adultentertainment,Chariots,-0.078007,51.523482,4,720,540
1079,adultentertainment,La Capannina,-0.131149291992188,51.5134432299446,4,1320,180
1080,adultentertainment,Ye Olde Axe,-0.0755879,51.5287687,4,720,300
1081,adultentertainment,Refine Massage,-0.029073,51.512338,4,600,1320
1082,adultentertainment,City Of London - Escorts 4U,-0.12901,51.511843,4,540,1080
1083,adultentertainment,Browns,-0.077736413495236,51.527311735448,4,720,180
1084,adultentertainment,Toy Room,-0.1376594,51.5093689,4,1350,180
1085,adultentertainment,Sophisticats,-0.148907,51.515555,4,1290,360
1086,adultentertainment,Sweatbox,-0.138801,51.514877,4,0,0
1087,adultentertainment,Secrets Five,-0.138075187439235,51.5448492040868,4,1200,360
1088,adultentertainment,Platinum Lace,-0.1326208,51.5103392,4,900,360
1089,adultentertainment,Tantric and The City,-0.177209,51.495067,4,600,1320
1090,adultentertainment,The Griffin,-0.112482,51.521551,4,720,60
1091,adultentertainment,Whites Gentleman's Club,-0.0710700005292892,51.5140075683594,4,960,240
1092,adultentertainment,Vanity Soho,-0.1335929,51.5147769,4,1200,180
1093,adultentertainment,BJ's White Swan,-0.041055550402833,51.512682804108,4,480,240
1094,adultentertainment,The White Horse Pub,-0.0770751,51.52446,4,720,0
1095,adultentertainment,The Windmill Theatre,-0.1342469,51.5115204,4,1230,330
1096,adultentertainment,Best Escorts Girls London,-0.112858,51.513149,4,540,1080
1097,adultentertainment,Wardour News,-0.1341522,51.5139214,4,420,1140
1098,beergardens,The Oiler Bar,0.0172660499811172,51.506510006908,4,720,1260
1099,beergardens,The Hill Lounge Bar and Kitchen,-0.0544347071635598,51.4376676756942,4,720,1380
1100,beergardens,The Load of Hay Tavern,-0.158173,51.547007,4,720,1410
1101,comedyclubs,The Backyard Comedy Club,-0.0553816858443952,51.5253337260339,4,1020,0
1102,comedyclubs,The Comedy Store,-0.132316388189793,51.5101393028675,4,1080,120
1103,comedyclubs,The Funny Side of The City,-0.098023,51.517092,4,1080,120
1104,comedyclubs,Laugh Train Home,-0.1623494,51.4633967,4,1080,120
1105,comedyclubs,Old Rope - new material comedy night,-0.143596,51.516068,4,1080,120
1106,comedyclubs,Lock 17 Jongleurs,-0.145892,51.541508,4,720,180
1107,comedyclubs,The Camden Head,-0.1409671,51.5373112,4,720,180
1108,comedyclubs,The Hen & Chickens Theatre,-0.1019971,51.5459853,4,720,90
1109,comedyclubs,Comedy Cafe,-0.079656578106362,51.526149397236,4,1140,0
1110,comedyclubs,Monkey Business Comedy Club,-0.1774635,51.5562446,4,1140,0
1111,comedyclubs,Up The Creek Comedy,-0.010865,51.481338,4,1200,120
1112,comedyclubs,Hoopla Improv Comedy Club,-0.087611,51.502075,4,1200,1320
1113,comedyclubs,London's Live Comedy,-0.1293576,51.5102749,4,1140,1350
1114,comedyclubs,Headliners,-0.257007,51.4925,4,510,1410
1115,comedyclubs,Angel Comedy,-0.1029029,51.5356168,4,1200,1320
1116,comedyclubs,Cafe Mode,-0.125723,51.515028,4,690,1410
1117,comedyclubs,The 99 Club,-0.1300401,51.5110891,4,600,1320
1118,comedyclubs,The Top Secret Comedy Club,-0.1230935,51.5153824,4,1110,1380
1119,danceclubs,Rise Nightclub,-0.1294174,51.5117425,4,1320,180
1120,danceclubs,Masters Club,-0.135219,51.510845,4,1080,60
1121,danceclubs,Video Ropes Productions,-0.035861,51.488873,4,540,1080
1122,danceclubs,Sosho Match,-0.086471,51.522407,4,720,180
1123,danceclubs,Mason House,-0.1405286,51.5140982,4,1350,180
1124,danceclubs,"Drink, Shop & Do",-0.121145,51.531336,4,450,120
1125,danceclubs,Concrete,-0.076235,51.524137,4,1260,120
1126,danceclubs,Raffles,-0.1736341,51.4853482,4,1350,300
1127,danceclubs,Salsa Classes,-0.1348474,51.4630623,4,1350,300
1128,danceclubs,Simmons,-0.120539936981252,51.5319373267473,4,960,180
1129,danceclubs,The Cuckoo Club,-0.1375095,51.50935,4,1350,210
1130,danceclubs,Thirst Bar,-0.131178508004041,51.5142949389071,4,1020,180
1131,danceclubs,Visions Banqueting Suite,-0.0755476,51.5457503,4,540,360
1132,danceclubs,Slimelight,-0.105268994750986,51.532201457574,4,540,360
1133,danceclubs,Rhum Jungle,-0.11171,51.52299,4,720,180
1134,danceclubs,The Zoo Bar & Club,-0.128993,51.510854,4,720,210
1135,danceclubs,The Aquarium,-0.1061541,51.5208536,4,720,210
1136,danceclubs,Corsica Studios,-0.098659,51.493839,4,1200,360
1137,danceclubs,Tonteria,-0.157014,51.492985,4,1200,180
1138,danceclubs,Salsa!,-0.129346619530808,51.514014467559,4,1050,120
1139,danceclubs,Market Place,-0.1403899,51.5163417,4,660,60
1140,danceclubs,Boujis,-0.174368724780047,51.4944579340395,4,1350,180
1141,danceclubs,The Nest,-0.0748201,51.5516445,4,1260,240
1142,danceclubs,Reflex London,-0.0945417,51.5130195,4,1200,180
1143,danceclubs,Dirty Martini,-0.1218443,51.5122269,4,1020,180
1144,danceclubs,Lo-Profile,-0.1336610019207,51.5133476257324,4,1320,240
1145,danceclubs,TSQ Club,-0.12926,51.5075,4,1320,180
1146,danceclubs,Kitts,-0.15708,51.493008,4,1350,180
1147,danceclubs,Tipsy,-0.0749508,51.5511555,4,1140,150
1148,danceclubs,Beduin,-0.105788636523471,51.5156283923835,4,1080,300
1149,danceclubs,100 Wardour Street,-0.133917666971684,51.5136011797847,4,660,180
1150,danceclubs,Area Club,-0.1231775,51.4879382,4,1380,480
1151,danceclubs,Babble City,-0.083541164375236,51.516288828571,4,720,180
1152,danceclubs,Ridley Road Market Bar,-0.073123,51.548357,4,1080,120
1153,danceclubs,The London Sky Bar,-0.125918999314308,51.4919929504395,4,420,0
1154,danceclubs,The Shoreditch,-0.0779931,51.5258048,4,720,120
1155,danceclubs,Panache,0.011041,51.567944,4,1200,120
1156,danceclubs,Oslo,-0.0561468089844084,51.5475014261653,4,720,180
1157,danceclubs,Dance Tunnel,-0.0755023,51.5493736,4,1320,180
1158,danceclubs,The Roof Gardens,-0.19149838488845,51.500919083044,4,1320,120
1159,danceclubs,151 Club,-0.167357,51.487818,4,1380,180
1160,danceclubs,Renaissance Rooms,-0.126677,51.482283,4,1200,120
1161,danceclubs,Bisous,-0.17731200158596,51.4950141906738,4,600,180
1162,danceclubs,The Roxy,-0.1329542,51.5166039,4,1020,210
1163,danceclubs,FM Bar & Restaurant,-0.225526,51.505475,4,1080,60
1164,danceclubs,Maggie's,-0.1802172,51.4861854,4,1350,210
1165,danceclubs,Chimayo,-0.187675,51.479376,4,720,120
1166,danceclubs,Project London,-0.1373242,51.5161657,4,1380,240
1167,danceclubs,Fez Club,-0.2167898,51.4608642,4,1320,240
1168,danceclubs,Deep Attraction,-0.1358831,51.5094248,4,630,180
1169,danceclubs,Kabaret's Prophecy,-0.138287,51.511946,4,1380,180
1170,danceclubs,Kings Head,-0.07714,51.535851,4,600,300
1171,danceclubs,Bodo's Schloss,-0.187742411508512,51.5025414642787,4,1080,180
1172,danceclubs,Storm Nightclub,-0.1293701,51.5103298,4,1350,300
1173,danceclubs,The Rocket,-0.110248,51.551829,4,600,0
1174,danceclubs,Club Couture,-0.0893619,51.4736558,4,1320,180
1175,danceclubs,Mahiki,-0.141471,51.5079053,4,1050,210
1176,danceclubs,The Candlelight Club,-0.059054,51.500689,4,1140,0
1177,danceclubs,Adventure Bar,-0.1320042,51.4644009,4,1020,120
1178,danceclubs,Bar Elba,-0.110195,51.502665,4,960,0
1179,danceclubs,The Lightbox,-0.12345708319367,51.485361339829,4,1320,360
1180,danceclubs,Eclipse,-0.183188,51.490867,4,1020,180
1181,danceclubs,My Place Hotel,-0.194546,51.49235,4,1260,120
1182,danceclubs,Mayfair Club,-0.141793,51.507586,4,540,1080
1183,danceclubs,London Groove,-0.0868255,51.5111847,4,600,1260
1184,danceclubs,The Big Chill House,-0.120083,51.5308115,4,480,120
1185,danceclubs,Adventure Bar,-0.12468295882481,51.510878346876,4,1020,0
1186,danceclubs,Electrowerkz,-0.105091,51.532232,4,1140,0
1187,danceclubs,Cable Street Studios,-0.0434237,51.5114444,4,600,1320
1188,danceclubs,Tramp,-0.13763,51.508258,4,1020,60
1189,danceclubs,Maddox Club,-0.142202640487034,51.5126001620115,4,1260,180
1190,danceclubs,Libertine Club,-0.1382663,51.5160367,4,1260,180
1191,danceclubs,Departure,-0.076774,51.512032,4,960,150
1192,danceclubs,The Alibi,-0.0755850002169609,51.5494766235352,4,1200,180
1193,danceclubs,Ruski's Caviar & Vodka Tavern,-0.1927277,51.5010377,4,480,180
1194,danceclubs,Club 49,-0.130923986434937,51.5138972560146,4,1050,180
1195,danceclubs,Dogstar,-0.111872317094295,51.4617614729059,4,960,240
1196,danceclubs,Churchills,-0.1396523,51.5083507,4,1260,240
1197,danceclubs,55 Club,-0.127096,51.516687,4,1320,210
1198,danceclubs,Capital A List,-0.1482569,51.5223727,4,540,1260
1199,danceclubs,Vendôme,-0.167596,51.49409,4,1320,240
1200,danceclubs,The Whitehouse,-0.13553167388689,51.460796532074,4,780,300
1201,danceclubs,Maya,-0.133759006857872,51.5158958435059,4,1320,180
1202,danceclubs,McQueen,-0.0854517,51.5248889,4,720,150
1203,danceclubs,Manero's,-0.0767751,51.5355644,4,1320,300
1204,danceclubs,Moonlighting Nightclub,-0.1308532,51.5140063,4,1320,300
1205,danceclubs,Basement of Tavistock Hotel,-0.128328,51.524251,4,720,180
1206,danceclubs,Basing House,-0.0782042,51.5284399,4,1320,240
1207,danceclubs,Revolution,-0.13447,51.462822,4,720,120
1208,danceclubs,Trapeze Bar,-0.0835358306884473,51.5256762996316,4,720,180
1209,danceclubs,The Box,-0.127210006117821,51.506420135498,4,1380,300
1210,danceclubs,Lately,-0.191429,51.546328,4,960,180
1211,danceclubs,Embargo Night Clubs,-0.185275,51.480228,4,600,900
1212,danceclubs,Blagclub,-0.1960301,51.5093212,4,1140,60
1213,danceclubs,Zebrano City,-0.0769234,51.5141967,4,1020,240
1214,danceclubs,Amika,-0.1482927,51.5140283,4,1350,210
1215,danceclubs,Funkybuddha,-0.14327,51.508464,4,1320,180
1216,danceclubs,Exilio LGBT Latin Dance Club,-0.089002,51.504652,4,1320,180
1217,danceclubs,No 5 Cavendish,-0.1441644,51.5167498,4,450,180
1218,danceclubs,Montezuma,-0.1759365,51.4939304,4,1320,180
1219,danceclubs,Miabella,-0.1309527,51.5144806,4,1080,180
1220,danceclubs,Kosmopol,-0.1789294,51.4873098,4,1020,120
1221,danceclubs,Rumba,-0.1335016,51.5109562,4,1110,180
1222,danceclubs,Visions Video Bar,-0.0755064,51.5458863,4,1320,360
1223,danceclubs,Apt,-0.092818,51.512978,4,720,180
1224,danceclubs,SO.UK Clapham,-0.13700177496743,51.462204337761,4,1140,210
1225,danceclubs,Phonox,-0.114536,51.4643843,4,1260,240
1226,danceclubs,Funky Mojoe,0.021229,51.596705,4,1200,0
1227,danceclubs,Cirque le Soir Club,-0.139012,51.512893,4,1380,180
1228,danceclubs,The Aquarium,-0.0852,51.525902,4,1020,420
1229,danceclubs,Piccadilly Institute,-0.134099488468905,51.510324371377,4,1020,180
1230,danceclubs,The Gate,-0.197487,51.508725,4,1110,90
1231,danceclubs,Under Solo,-0.14406930909103,51.539615767953,4,1020,120
1232,danceclubs,The Underworld,-0.14219406142914,51.539134464552,4,1380,180
1233,danceclubs,Surya - Live Music Venue,-0.1093332,51.5319557,4,420,240
1234,danceclubs,Camden Centre,-0.125382702469573,51.5290958809435,4,540,120
1235,danceclubs,Café de Paris,-0.1318492,51.5104944,4,360,180
1236,jazzandblues,Vortex Downstairs,-0.076672,51.548964,4,660,120
1237,jazzandblues,Dalston Jazz Bar,-0.076071,51.54871,4,1140,180
1238,jazzandblues,Mh Acoustic Duo,-0.171814,51.922113,4,540,0
1239,jazzandblues,Old Street Records,-0.0809207,51.5268157,4,1020,120
1240,jazzandblues,PizzaExpress Jazz Club,-0.133339373491822,51.5150837285539,4,1140,1380
1241,jazzandblues,Jazz Live At The Crypt,-0.087000851386705,51.473076001976,4,1200,0
1242,jazzandblues,Coach & Horses,-0.0103787294293634,51.5615728868639,4,1200,0
1243,jazzandblues,Ronnie Scott's Jazz Club,-0.1315816,51.5133855,4,1080,180
1244,jazzandblues,Boisdale of Bishopsgate,-0.079643,51.517835,4,660,1380
1245,jazzandblues,Jazz After Dark,-0.131048,51.514502,4,1020,180
1246,jazzandblues,The Sitara,-0.1327519,51.5650346,4,1050,1410
1247,jazzandblues,The Oscar Wilde Bar,-0.1359431,51.5100916,4,1110,180
1248,jazzandblues,St Moritz Club,-0.135158,51.514459,4,1320,180
1249,jazzandblues,WM Jazz Club,0.003092,51.501748,4,1020,0
1250,jazzandblues,Troy Bar & Restaurant,-0.080131,51.527616,4,660,30
1251,jazzandblues,The Cafe @ Foyles,-0.130074470926743,51.5142404105761,4,570,1290
1252,jazzandblues,Map Studio Café,-0.1448597,51.5476686,4,480,1080
1253,jazzandblues,Hideaway,-0.130317,51.426834,4,1140,60
1254,jazzandblues,Boisdale of Canary Wharf,-0.0222140550613403,51.5051965278475,4,720,0
1255,jazzandblues,Jackdaw,-0.0557798,51.5564188,4,450,0
1256,jazzandblues,The Bootlegger,-0.083457,51.5119544,4,960,180
1257,karaoke,Bunga Bunga,-0.1701855,51.4788445,4,1020,150
1258,karaoke,Bloomsbury Bowling Lanes,-0.128385,51.523967,4,720,180
1259,karaoke,Erebuni Restaurant,-0.0981366,51.5206273,4,720,120
1260,karaoke,Infernos,-0.135666606407394,51.4627671810949,4,1290,210
1261,karaoke,Sichuan Restaurant,0.0148482386230171,51.4897081429562,4,720,1410
1262,karaoke,Namco Funscape,-0.118922,51.502158,4,600,0
1263,karaoke,China Boulevard,-0.18871,51.462944,4,1110,1380
1264,karaoke,Karaoke Box Soho,-0.13139910868239,51.513584868038,4,720,300
1265,karaoke,Sanxia Renjia,-0.1349557,51.5195779,4,690,1410
1266,karaoke,Brazen Monkey,-0.137852996587753,51.5084495544434,4,540,60
1267,karaoke,Karaoke Epoc,-0.134745,51.512232,4,720,1380
1268,karaoke,Lucky Voice Karaoke,-0.13685674841148,51.514222064277,4,900,60
1269,karaoke,Karaoke Box - Smithfield,-0.103192921503408,51.517922514141,4,720,180
1270,karaoke,Karaoke Box Mayfair,-0.141945,51.513434,4,900,120
1271,karaoke,Canton Element,-0.117582,51.519862,4,720,1380
1272,karaoke,Firecracker,-0.1271241,51.4949849,4,1050,60
1273,pianobars,The Piano Works,-0.108103,51.522874,4,1020,60
1274,pianobars,Straight&Narrow,-0.0396467,51.5101446,4,1020,0
1275,pianobars,Toulouse Lautrec,-0.103391147617971,51.4910865673158,4,660,150
1276,pianobars,Piãno,-0.1929318,51.5012383,4,1080,1410
1277,pianobars,Muddle & Swing,-0.0745327,51.5587157,4,1020,120
1278,pianobars,The Piano Bar,-0.13372,51.5150299,4,1080,0
1279,pianobars,Oliver's,-0.0077916,51.4796935,4,1020,120
1280,poolhalls,Mile End American Pool & Snooker,-0.0448892,51.5222411,4,0,0
1281,poolhalls,Efes Snooker Club,-0.07518080474243,51.550996571052,4,720,240
1282,poolhalls,1920,-0.100608997046947,51.5232200622559,4,720,90
1283,poolhalls,The Lost Hour,-0.011416,51.478947,4,660,1410
1284,poolhalls,Kings Cross Hurricane Room,-0.1207128,51.5307636,4,0,0
1285,poolhalls,Hurricane Room formerly The Regal,0.000868,51.606838,4,600,0
1286,cocktailbars,Boondocks,-0.0910612,51.5282587,4,720,0
1287,cocktailbars,Metro Garden Restaurant and Bar,-0.137833,51.461562,4,1080,1380
1288,cocktailbars,Nanashi,-0.0825094431638718,51.5260267979835,4,720,1350
1289,cocktailbars,The Escapologist,-0.126357,51.513968,4,1020,0
1290,cocktailbars,Royal Exchange Grind,-0.087695,51.513701,4,390,1140
1291,cocktailbars,Blue Bar,-0.156091,51.502165,4,960,60
1292,cocktailbars,Fancy Funkin Chicken,-0.114172,51.4614156,4,750,30
1293,cocktailbars,Smollensky's,-0.019475,51.5043640346582,4,720,1320
1294,cocktailbars,Palm Beach Bar & Kitchen,-0.1443643,51.508202,4,690,60
1295,cocktailbars,The Passage,-0.0729553,51.5463065,4,1020,180
1296,cocktailbars,Reverend JW Simpson,-0.1352607,51.5196654,4,1020,1410
1297,cocktailbars,La Casita Mexicana London,-0.071688,51.519634,4,660,0
1298,cocktailbars,Tony's Restaurant and Bar,-0.1131342,51.4551766,4,660,1380
1299,cocktailbars,108 Bar & Grill,-0.1505703,51.5179613,4,480,1350
1300,cocktailbars,Archer Street,-0.133984,51.511446,4,990,120
1301,cocktailbars,Three Eight Four,-0.112249458678314,51.4618518762594,4,1020,0
1302,cocktailbars,Beltane & Pop,-0.116837,51.505776,4,600,0
1303,cocktailbars,The Mulwray,-0.1326038,51.5111466,4,1020,0
1304,cocktailbars,Smoke & Salt,-0.1123464,51.4635098,4,1080,1380
1305,cocktailbars,Martello Hall,-0.0570392667506459,51.5386702323192,4,480,180
1306,cocktailbars,Oriole,-0.10276,51.51888,4,1050,120
1307,cocktailbars,Ten,-0.126304723297801,51.5868190844941,4,1080,1320
1308,cocktailbars,LWS,-0.0826574257593618,51.4184948416892,4,600,1020
1309,cocktailbars,Be At One,-0.2240199,51.4936071,4,990,120
1310,cocktailbars,Planet Hollywood,-0.132474303245544,51.5091614747849,4,690,60
1311,cocktailbars,Hoxley & Porter,-0.102857,51.5402348,4,720,120
1312,cocktailbars,City of London Distillery,-0.105029,51.513932,4,540,1380
1313,cocktailbars,The Society Club,-0.135789,51.51312,4,660,1080
1314,cocktailbars,Peg And Patriot,-0.0560689334582287,51.5303692448471,4,720,60
1315,cocktailbars,Be At One,-0.0783232,51.5188161,4,900,60
1316,cocktailbars,Kaifeng Kosher Oriental Restaurant,-0.224199,51.58996,4,900,60
1317,cocktailbars,Cartel Battersea,-0.166284653297639,51.4718572568258,4,1020,120
1318,cocktailbars,White Lion,-0.1296439,51.4306602,4,720,60
1319,cocktailbars,TT Liquor,-0.078099,51.52868,4,660,1380
1320,cocktailbars,Patch,-0.1019324,51.5134307,4,990,0
1321,cocktailbars,Salon,-0.11327999830246,51.4617652893066,4,1080,1380
1322,cocktailbars,Cellar N1,-0.121336119689537,51.531633693976,4,1020,150
1323,cocktailbars,Three Sheets,-0.0758611,51.5439044,4,510,30
1324,cocktailbars,Mr Fogg's,-0.1440533,51.5097316,4,960,120
1325,cocktailbars,Wahaca,-0.103992093882022,51.5360012195308,4,720,1380
1326,cocktailbars,Sugar Cane Bar,-0.163111798147611,51.4642072205196,4,1020,120
1327,cocktailbars,Freud Café,-0.126793384552002,51.5151658342822,4,720,120
1328,cocktailbars,The Natural Philosopher,-0.0588129982352257,51.5324821472168,4,1080,60
1329,cocktailbars,BallieBallerson,-0.080574,51.525569,4,960,120
1330,cocktailbars,Simmons Liverpool Street,-0.0784002989530563,51.5181132645156,4,900,1410
1331,cocktailbars,Kiss the Sky,-0.124420759133781,51.5806944136264,4,1020,60
1332,cocktailbars,Goat,-0.18035570926213,51.486178863405,4,720,60
1333,cocktailbars,The Gibson,-0.0964486,51.5239276,4,1020,120
1334,cocktailbars,Clerkenwell & Social,-0.103018081639107,51.5222307969475,4,720,1410
1335,cocktailbars,Icon Balcony Bar,-0.130360445820044,51.5108947743055,4,1080,120
1336,cocktailbars,Canvas Chelsea,-0.15732,51.494198,4,1050,30
1337,cocktailbars,Dirty Martini,-0.094857,51.51454,4,900,180
1338,cocktailbars,Flamingo LGBT Cocktail Bar,-0.1131619,51.5182866,4,960,180
1339,cocktailbars,City Zebrano,-0.0773255814758613,51.5144293371129,4,720,0
1340,cocktailbars,Mortons,-0.146562634378364,51.5103812960982,4,1140,1380
1341,cocktailbars,Be At One,-0.120657,51.532169,4,1020,120
1342,cocktailbars,Mews Cocktail & Lounge Bar,-0.1451635,51.5129586,4,1080,60
1343,cocktailbars,SkyLounge,-0.0782157558196559,51.5108315754441,4,660,120
1344,cocktailbars,Hector & Noble,-0.0439443066716194,51.5383172299077,4,720,0
1345,cocktailbars,Sager + Wilde - Paradise Row,-0.056127,51.528158,4,1020,0
1346,cocktailbars,Dado54,-0.105140831152648,51.5171149897713,4,960,120
1347,cocktailbars,Tonight Josephine,-0.110076002776623,51.5027275085449,4,1020,120
1348,cocktailbars,Hawksmoor,-0.075657,51.5211502,4,1050,60
1349,cocktailbars,Charlotte's Bistro,-0.2551397,51.4931386,4,720,0
1350,cocktailbars,No 32 The Old Town,-0.140623,51.463037,4,540,60
1351,cocktailbars,The Cocktail Trading Company,-0.0723863517729262,51.5244377341122,4,1020,0
1352,cocktailbars,Buddha-Bar London,-0.162414,51.5015651,4,1020,0
1353,cocktailbars,City Social,-0.0856913796483241,51.5147032616401,4,1080,1350
1354,cocktailbars,Dirty Bones,-0.07433,51.524195,4,720,0
1355,cocktailbars,Burlock,-0.1516109,51.5151279,4,1020,180
1356,cocktailbars,Monmouth Kitchen,-0.127168,51.514233,4,1020,1350
1357,cocktailbars,The Frog,-0.0733249000211456,51.5206503447869,4,690,0
1358,cocktailbars,Voltaire,-0.1043366,51.5125089,4,720,60
1359,cocktailbars,Coin Laundry,-0.107938287763176,51.5263937556446,4,480,120
1360,cocktailbars,Victor Wynd Museum of Curiosities,-0.057529,51.534844,4,720,1350
1361,cocktailbars,Punch Room,-0.1362341,51.5164838,4,1050,60
1362,cocktailbars,Harrild and Sons,-0.104673877358437,51.515795102761,4,720,120
1363,cocktailbars,Burger & Lobster,-0.1503485,51.5138886,4,720,1380
1364,cocktailbars,Ponte Nuovo,-0.0799926,51.4196287,4,0,1380
1365,cocktailbars,B-SOHO Cocktail Bar & Pizzeria,-0.1374579,51.5149535,4,720,0
1366,cocktailbars,The Light Lounge,-0.129537636491932,51.511830079557,4,1080,0
1367,cocktailbars,Lmnh Kitchen,-0.0672623,51.5126342,4,450,1020
1368,cocktailbars,Caravan City,-0.0914937108755112,51.5121026881328,4,420,1350
1369,cocktailbars,Las Iguanas,-0.075744,51.519292,4,600,1410
1370,cocktailbars,Oui Monsieur!,-0.0742164,51.5563144,4,1080,120
1371,cocktailbars,The Other Room,-0.0829467,51.4957426,4,960,0
1372,cocktailbars,The Brook,-0.0559712,51.5400374,4,1080,0
1373,cocktailbars,Heights Restaurant,-0.1405946,51.5131559,4,420,1320
1374,cocktailbars,Basement Sate,-0.134914,51.514068,4,1080,90
1375,cocktailbars,Barts,-0.1669994,51.4926281,4,1080,60
1376,cocktailbars,Marco Pierre White Wheeler's Oyster Bar and Grill Room,-0.084796,51.514214,4,1050,1320
1377,cocktailbars,The Botanist,-0.156892381135158,51.4929079133311,4,480,1410
1378,cocktailbars,PimpShuei,-0.112625621259212,51.5227696778631,4,1080,0
1379,cocktailbars,Pickled Fred,-0.0707883,51.5204426,4,720,0
1380,cocktailbars,Underdog,-0.0735514,51.5241928,4,960,60
1381,cocktailbars,Pergola On The Roof,-0.2253962,51.5070281,4,1080,1380
1382,cocktailbars,Adventure Bar,-0.167799,51.460623,4,1020,120
1383,cocktailbars,Red Bar,-0.155116,51.509892,4,1020,120
1384,cocktailbars,Bermondsey Arts  Club,-0.0813847397614801,51.4967495654065,4,1080,120
1385,cocktailbars,Exit Bar,-0.0714451,51.5226803,4,960,60
1386,cocktailbars,Apples & Pears,-0.0699507,51.5169865,4,1020,60
1387,cocktailbars,Duke & Duchess,-0.1013157,51.5133133,4,690,0
1388,cocktailbars,Quo Vadis,-0.132622,51.514086,4,1050,1350
1389,cocktailbars,Jimmys Pop Up Secret Garden,-0.1293171,51.4654655,4,1020,0
1390,cocktailbars,Bar Termini Centrale,-0.1516507,51.5151403,4,540,60
1391,cocktailbars,Timmy Green,-0.143855731693976,51.4980343768138,4,450,1380
1392,cocktailbars,Passo Restaurant,-0.08785,51.524891,4,720,0
1393,cocktailbars,Translate,-0.077772578945128,51.527876309894,4,450,180
1394,cocktailbars,Palm Club,-0.0764677073429132,51.5485181955166,4,1110,0
1395,cocktailbars,The London Cocktail Club,-0.13657160367267,51.518898760667,4,990,0
1396,cocktailbars,Evans and Peel Pharmacy,-0.2554354,51.4913731,4,1020,1410
1397,cocktailbars,The Covent Garden Cocktail Club,-0.127563552293741,51.5119465671043,4,990,0
1398,cocktailbars,Shikumen Shepherd's Bush,-0.224605244444547,51.5040114224861,4,720,1380
1399,cocktailbars,Pop Art Sushi,-0.126533,51.4851494,4,1020,1350
1400,cocktailbars,Shaker & Company,-0.139002,51.528,4,1020,60
1401,cocktailbars,Victorian Bath House,-0.082891,51.516683,4,1020,0
1402,cocktailbars,Lokhandwala,-0.137172,51.520552,4,720,1410
1403,cocktailbars,Bone Daddies Bermondsey,-0.070964,51.497405,4,1020,1320
1404,cocktailbars,Scarfes Bar,-0.117948334647877,51.5172037619075,4,720,0
1405,cocktailbars,Soho House,-0.1328641,51.5138361,4,450,780
1406,cocktailbars,Cafe Rouge - Kingsway,-0.119625063823719,51.5160483631117,4,480,1380
1407,cocktailbars,Bar Titania,-0.1295815,51.511755,4,900,0
1408,cocktailbars,Looking Glass Cocktail Club,-0.0761291,51.5281507,4,1020,120
1409,cocktailbars,The Bloomsbury Club,-0.1290839910507,51.5171420898507,4,1020,60
1410,cocktailbars,Be at One,-0.130810688364731,51.5140226072171,4,990,180
1411,cocktailbars,The Beast of Brixton,-0.124819410064674,51.4595280023115,4,1080,120
1412,cocktailbars,Las Iguanas,-0.117650182564496,51.5055947841907,4,600,1410
1413,cocktailbars,Suito,-0.0716242,51.5194222,4,750,0
1414,cocktailbars,Bronté,-0.126559210545473,51.5078202021644,4,450,0
1415,cocktailbars,G?NG,-0.0867161779665424,51.5042892573855,4,840,120
1416,cocktailbars,Autumn Yard,-0.06762,51.554642,4,540,1350
1417,cocktailbars,The Jam Tree,-0.1871939,51.4792716,4,720,120
1418,cocktailbars,Blind Spot Bar,-0.126384,51.510515,4,1020,90
1419,cocktailbars,Doctor Kluger's,-0.04711,51.47518,4,720,0
1420,cocktailbars,Bull In a China Shop,-0.0780521591194749,51.5266545476433,4,480,1410
1421,cocktailbars,65 & King,-0.1913349,51.5153795,4,720,0
1422,cocktailbars,Florentine Restaurant and Bar,-0.113175885191663,51.4978580235204,4,690,1350
1423,cocktailbars,The Schoolhouse,-0.1758164,51.4604388,4,540,0
1424,cocktailbars,Be At One,-0.102707632032699,51.5399112490308,4,990,120
1425,cocktailbars,Boys'N'Berry,-0.206247456371784,51.4748900209557,4,480,1380
1426,cocktailbars,Dirty Martini,-0.1334774,51.4632607,4,960,90
1427,cocktailbars,The Shrub & Shutter,-0.10854094678542,51.462895549705,4,1020,180
1428,cocktailbars,Seymour's Parlour,-0.158677,51.514849,4,420,60
1429,cocktailbars,The Luggage Room,-0.150762564868705,51.5124557850437,4,1020,120
1430,cocktailbars,Discount Suit Company,-0.0760666,51.5165617,4,840,60
1431,cocktailbars,214 Bermondsey,-0.0814993619018196,51.4980918355528,4,1020,90
1432,cocktailbars,The Chelsea Pensioner,-0.1875777,51.4816873,4,720,30
1433,cocktailbars,The Lampery,-0.0793179497122765,51.5104610675705,4,1020,1380
1434,cocktailbars,Sama Bankside,-0.103826,51.50662,4,600,90
1435,cocktailbars,Be at one,-0.139910727739334,51.5358353422986,4,990,120
1436,cocktailbars,Mezcal Cantina,-0.0744838996623705,51.5621905299594,4,690,120
1437,cocktailbars,Dandelyan Bar,-0.106944002211094,51.5084228515625,4,720,1410
1438,cocktailbars,Acciuga London,-0.203061,51.497435,4,1140,1350
1439,cocktailbars,Helgi's,-0.0558559969067574,51.5401412820045,4,1020,1380
1440,cocktailbars,JuJu,-0.173953,51.4857,4,1140,150
1441,cocktailbars,Be At One,-0.1208611,51.5130615,4,270,180
1442,cocktailbars,Ruby's,-0.0746791,51.5527317,4,1110,120
1443,cocktailbars,Hai Cenato,-0.143634383550621,51.4972182390996,4,480,1350
1444,cocktailbars,Bill's,-0.157553,51.521638,4,480,1380
